%  GPST          latitude(d'")   longitude(d'")  height(m)   Q  ns   sdn(m)   sde(m)   sdu(m)  sdne(m)  sdeu(m)  sdue(m) age(s)  ratio
2334 484177.0   45 57 00.98866  -66 38 32.23794    19.2287   2   8   0.0036   0.0061   0.0088   0.0018  -0.0029  -0.0028   7.00    0.0
2334 484178.0   45 57 00.98866  -66 38 32.23794    19.2287   2   8   0.0036   0.0061   0.0088   0.0018  -0.0029  -0.0028   8.00    0.0
2334 484179.0   45 57 00.98866  -66 38 32.23794    19.2287   2   8   0.0036   0.0061   0.0088   0.0018  -0.0029  -0.0028   9.00    0.0
2334 484180.0   45 57 00.98866  -66 38 32.23794    19.2287   2   8   0.0036   0.0061   0.0088   0.0018  -0.0029  -0.0028  10.00    0.0
2334 484181.0   45 57 00.98866  -66 38 32.23794    19.2287   2   8   0.0036   0.0061   0.0088   0.0018  -0.0029  -0.0028  11.00    0.0
2334 484182.0   45 57 00.98866  -66 38 32.23794    19.2286   2   8   0.0036   0.0061   0.0088   0.0018  -0.0029  -0.0028  12.00    0.0
2334 484183.0   45 57 00.98866  -66 38 32.23794    19.2286   2   8   0.0036   0.0061   0.0088   0.0018  -0.0029  -0.0028  13.00    0.0
2334 484184.0   45 57 00.98866  -66 38 32.23794    19.2286   2   8   0.0036   0.0061   0.0088   0.0018  -0.0029  -0.0028  14.00    0.0
2334 484185.0   45 57 00.98866  -66 38 32.23794    19.2285   2   8   0.0036   0.0061   0.0088   0.0018  -0.0029  -0.0028  15.00    0.0
2334 484186.0   45 57 00.98866  -66 38 32.23794    19.2285   2   8   0.0036   0.0061   0.0088   0.0018  -0.0029  -0.0028  16.00    0.0
2334 484187.0   45 57 00.98866  -66 38 32.23794    19.2284   2   8   0.0036   0.0061   0.0088   0.0018  -0.0029  -0.0028  17.00    0.0
2334 484188.0   45 57 00.98866  -66 38 32.23794    19.2284   2   8   0.0036   0.0061   0.0088   0.0018  -0.0029  -0.0028  18.00    0.0
2334 484189.0   45 57 00.98866  -66 38 32.23793    19.2283   2   8   0.0036   0.0061   0.0088   0.0018  -0.0029  -0.0028  19.00    0.0
2334 484190.0   45 57 00.98866  -66 38 32.23793    19.2282   2   8   0.0036   0.0061   0.0088   0.0018  -0.0029  -0.0028  20.00    0.0
2334 484191.0   45 57 00.98866  -66 38 32.23793    19.2281   2   8   0.0036   0.0061   0.0088   0.0018  -0.0029  -0.0028  21.00    0.0
2334 484192.0   45 57 00.98866  -66 38 32.23793    19.2280   2   8   0.0036   0.0061   0.0088   0.0018  -0.0029  -0.0028  22.00    0.0
2334 484193.0   45 57 00.98866  -66 38 32.23793    19.2279   2   8   0.0036   0.0061   0.0088   0.0018  -0.0029  -0.0028  23.00    0.0
2334 484194.0   45 57 00.98866  -66 38 32.23793    19.2278   2   8   0.0036   0.0061   0.0088   0.0018  -0.0029  -0.0028  24.00    0.0
2334 484195.0   45 57 00.98866  -66 38 32.23793    19.2277   2   8   0.0036   0.0061   0.0088   0.0018  -0.0029  -0.0028  25.00    0.0
2334 484196.0   45 57 00.98867  -66 38 32.23793    19.2276   2   8   0.0036   0.0061   0.0088   0.0018  -0.0029  -0.0028  26.00    0.0
2334 484197.0   45 57 00.98867  -66 38 32.23792    19.2275   2   8   0.0036   0.0061   0.0088   0.0018  -0.0029  -0.0028  27.00    0.0
2334 484198.0   45 57 00.98867  -66 38 32.23792    19.2273   2   8   0.0036   0.0061   0.0088   0.0019  -0.0029  -0.0028  28.00    0.0
2334 484199.0   45 57 00.98867  -66 38 32.23792    19.2273   2   8   0.0036   0.0061   0.0088   0.0019  -0.0029  -0.0028  29.00    0.0
2334 484200.0   45 57 00.98867  -66 38 32.23792    19.2272   2   8   0.0036   0.0061   0.0088   0.0019  -0.0029  -0.0028   0.00    0.0
2334 484201.0   45 57 00.98867  -66 38 32.23792    19.2271   2   8   0.0036   0.0061   0.0088   0.0019  -0.0029  -0.0028   1.00    0.0
2334 484202.0   45 57 00.98867  -66 38 32.23791    19.2270   2   8   0.0036   0.0061   0.0088   0.0019  -0.0029  -0.0028   2.00    0.0
2334 484203.0   45 57 00.98867  -66 38 32.23791    19.2270   2   8   0.0036   0.0061   0.0088   0.0019  -0.0029  -0.0028   3.00    0.0
2334 484204.0   45 57 00.98867  -66 38 32.23791    19.2270   2   8   0.0036   0.0061   0.0088   0.0019  -0.0029  -0.0028   4.00    0.0
2334 484205.0   45 57 00.98867  -66 38 32.23791    19.2269   2   8   0.0036   0.0061   0.0088   0.0019  -0.0029  -0.0028   5.00    0.0
2334 484206.0   45 57 00.98867  -66 38 32.23791    19.2269   2   8   0.0036   0.0061   0.0088   0.0019  -0.0029  -0.0028   6.00    0.0
2334 484207.0   45 57 00.98867  -66 38 32.23791    19.2268   2   8   0.0036   0.0061   0.0088   0.0019  -0.0029  -0.0028   7.00    0.0
2334 484208.0   45 57 00.98867  -66 38 32.23791    19.2268   2   8   0.0036   0.0061   0.0088   0.0019  -0.0029  -0.0028   8.00    0.0
2334 484209.0   45 57 00.98867  -66 38 32.23791    19.2267   2   8   0.0036   0.0061   0.0088   0.0019  -0.0029  -0.0028   9.00    0.0
2334 484210.0   45 57 00.98867  -66 38 32.23791    19.2267   2   8   0.0036   0.0061   0.0088   0.0019  -0.0029  -0.0028  10.00    0.0
2334 484211.0   45 57 00.98867  -66 38 32.23791    19.2266   2   8   0.0036   0.0061   0.0088   0.0019  -0.0029  -0.0028  11.00    0.0
2334 484212.0   45 57 00.98867  -66 38 32.23791    19.2266   2   8   0.0036   0.0061   0.0088   0.0019  -0.0029  -0.0028  12.00    0.0
2334 484213.0   45 57 00.98867  -66 38 32.23791    19.2265   2   8   0.0036   0.0061   0.0088   0.0019  -0.0029  -0.0028  13.00    0.0
2334 484214.0   45 57 00.98867  -66 38 32.23791    19.2265   2   8   0.0036   0.0061   0.0088   0.0019  -0.0029  -0.0028  14.00    0.0
2334 484215.0   45 57 00.98867  -66 38 32.23791    19.2264   2   8   0.0036   0.0061   0.0088   0.0019  -0.0029  -0.0028  15.00    0.0
2334 484216.0   45 57 00.98867  -66 38 32.23790    19.2264   2   8   0.0036   0.0061   0.0088   0.0019  -0.0029  -0.0028  16.00    0.0
2334 484217.0   45 57 00.98868  -66 38 32.23790    19.2264   2   8   0.0036   0.0061   0.0088   0.0019  -0.0029  -0.0028  17.00    0.0
2334 484218.0   45 57 00.98868  -66 38 32.23790    19.2263   2   8   0.0036   0.0061   0.0088   0.0019  -0.0029  -0.0028  18.00    0.0
2334 484219.0   45 57 00.98868  -66 38 32.23790    19.2263   2   8   0.0036   0.0061   0.0088   0.0019  -0.0029  -0.0028  19.00    0.0
2334 484220.0   45 57 00.98868  -66 38 32.23790    19.2263   2   8   0.0036   0.0061   0.0088   0.0019  -0.0029  -0.0028  20.00    0.0
2334 484221.0   45 57 00.98868  -66 38 32.23790    19.2262   2   8   0.0036   0.0061   0.0088   0.0019  -0.0029  -0.0028  21.00    0.0
2334 484222.0   45 57 00.98868  -66 38 32.23790    19.2262   2   8   0.0036   0.0061   0.0088   0.0019  -0.0029  -0.0028  22.00    0.0
2334 484223.0   45 57 00.98868  -66 38 32.23790    19.2262   2   8   0.0036   0.0061   0.0088   0.0019  -0.0029  -0.0028  23.00    0.0
2334 484224.0   45 57 00.98868  -66 38 32.23790    19.2262   2   8   0.0036   0.0061   0.0088   0.0019  -0.0029  -0.0028  24.00    0.0
2334 484225.0   45 57 00.98868  -66 38 32.23790    19.2261   2   8   0.0036   0.0061   0.0088   0.0019  -0.0029  -0.0028  25.00    0.0
2334 484226.0   45 57 00.98868  -66 38 32.23790    19.2261   2   8   0.0036   0.0061   0.0088   0.0019  -0.0029  -0.0028  26.00    0.0
2334 484227.0   45 57 00.98868  -66 38 32.23790    19.2261   2   8   0.0036   0.0061   0.0088   0.0019  -0.0029  -0.0028  27.00    0.0
2334 484228.0   45 57 00.98868  -66 38 32.23790    19.2261   2   8   0.0036   0.0061   0.0088   0.0019  -0.0029  -0.0028  28.00    0.0
2334 484229.0   45 57 00.98868  -66 38 32.23790    19.2261   2   8   0.0036   0.0061   0.0088   0.0019  -0.0030  -0.0028  29.00    0.0
2334 484230.0   45 57 00.98868  -66 38 32.23790    19.2261   2   8   0.0036   0.0061   0.0088   0.0019  -0.0030  -0.0028   0.00    0.0
2334 484231.0   45 57 00.98868  -66 38 32.23790    19.2261   2   8   0.0036   0.0061   0.0088   0.0019  -0.0030  -0.0028   1.00    0.0
2334 484232.0   45 57 00.98868  -66 38 32.23790    19.2261   2   8   0.0036   0.0061   0.0088   0.0019  -0.0030  -0.0028   2.00    0.0
2334 484233.0   45 57 00.98868  -66 38 32.23790    19.2261   2   8   0.0036   0.0061   0.0088   0.0019  -0.0030  -0.0028   3.00    0.0
2334 484234.0   45 57 00.98868  -66 38 32.23789    19.2261   2   8   0.0036   0.0061   0.0088   0.0019  -0.0030  -0.0028   4.00    0.0
2334 484235.0   45 57 00.98868  -66 38 32.23789    19.2261   2   8   0.0036   0.0061   0.0088   0.0019  -0.0030  -0.0028   5.00    0.0
2334 484236.0   45 57 00.98868  -66 38 32.23789    19.2261   2   8   0.0036   0.0061   0.0088   0.0019  -0.0030  -0.0028   6.00    0.0
2334 484237.0   45 57 00.98868  -66 38 32.23789    19.2261   2   8   0.0036   0.0061   0.0088   0.0019  -0.0030  -0.0028   7.00    0.0
2334 484238.0   45 57 00.98868  -66 38 32.23789    19.2262   2   8   0.0036   0.0061   0.0088   0.0019  -0.0030  -0.0028   8.00    0.0
2334 484239.0   45 57 00.98868  -66 38 32.23789    19.2262   2   8   0.0036   0.0061   0.0088   0.0019  -0.0030  -0.0028   9.00    0.0
2334 484240.0   45 57 00.98868  -66 38 32.23789    19.2262   2   8   0.0036   0.0061   0.0088   0.0019  -0.0030  -0.0028  10.00    0.0
2334 484241.0   45 57 00.98868  -66 38 32.23789    19.2262   2   8   0.0036   0.0061   0.0088   0.0019  -0.0030  -0.0028  11.00    0.0
2334 484242.0   45 57 00.98867  -66 38 32.23789    19.2263   2   8   0.0036   0.0061   0.0088   0.0019  -0.0030  -0.0028  12.00    0.0
2334 484243.0   45 57 00.98867  -66 38 32.23789    19.2263   2   8   0.0036   0.0061   0.0088   0.0019  -0.0030  -0.0028  13.00    0.0
2334 484244.0   45 57 00.98867  -66 38 32.23789    19.2263   2   8   0.0036   0.0061   0.0088   0.0019  -0.0030  -0.0028  14.00    0.0
2334 484245.0   45 57 00.98867  -66 38 32.23789    19.2263   2   8   0.0036   0.0061   0.0088   0.0019  -0.0030  -0.0028  15.00    0.0
2334 484246.0   45 57 00.98867  -66 38 32.23789    19.2264   2   8   0.0036   0.0061   0.0088   0.0019  -0.0030  -0.0028  16.00    0.0
2334 484247.0   45 57 00.98867  -66 38 32.23789    19.2264   2   8   0.0036   0.0061   0.0088   0.0019  -0.0030  -0.0028  17.00    0.0
2334 484248.0   45 57 00.98867  -66 38 32.23788    19.2264   2   8   0.0036   0.0061   0.0088   0.0019  -0.0030  -0.0028  18.00    0.0
2334 484249.0   45 57 00.98867  -66 38 32.23788    19.2264   2   8   0.0036   0.0061   0.0088   0.0019  -0.0030  -0.0028  19.00    0.0
2334 484250.0   45 57 00.98867  -66 38 32.23788    19.2264   2   8   0.0036   0.0061   0.0088   0.0019  -0.0030  -0.0028  20.00    0.0
2334 484251.0   45 57 00.98867  -66 38 32.23788    19.2264   2   8   0.0036   0.0061   0.0088   0.0019  -0.0030  -0.0028  21.00    0.0
2334 484252.0   45 57 00.98867  -66 38 32.23788    19.2264   2   8   0.0036   0.0061   0.0088   0.0019  -0.0030  -0.0028  22.00    0.0
2334 484253.0   45 57 00.98867  -66 38 32.23788    19.2264   2   8   0.0036   0.0061   0.0088   0.0019  -0.0030  -0.0028  23.00    0.0
2334 484254.0   45 57 00.98867  -66 38 32.23788    19.2264   2   8   0.0036   0.0061   0.0088   0.0019  -0.0030  -0.0028  24.00    0.0
2334 484255.0   45 57 00.98867  -66 38 32.23788    19.2264   2   8   0.0036   0.0061   0.0088   0.0019  -0.0030  -0.0028  25.00    0.0
2334 484256.0   45 57 00.98867  -66 38 32.23787    19.2263   2   8   0.0036   0.0061   0.0088   0.0019  -0.0030  -0.0028  26.00    0.0
2334 484257.0   45 57 00.98867  -66 38 32.23787    19.2263   2   8   0.0036   0.0061   0.0088   0.0019  -0.0030  -0.0028  27.00    0.0
2334 484258.0   45 57 00.98867  -66 38 32.23787    19.2263   2   8   0.0036   0.0061   0.0088   0.0019  -0.0030  -0.0028  28.00    0.0
2334 484259.0   45 57 00.98867  -66 38 32.23787    19.2263   2   8   0.0036   0.0061   0.0088   0.0019  -0.0030  -0.0029  29.00    0.0
2334 484260.0   45 57 00.98867  -66 38 32.23787    19.2263   2   8   0.0036   0.0061   0.0088   0.0019  -0.0030  -0.0029   0.00    0.0
2334 484261.0   45 57 00.98867  -66 38 32.23787    19.2263   2   8   0.0036   0.0061   0.0088   0.0019  -0.0030  -0.0029   1.00    0.0
2334 484262.0   45 57 00.98867  -66 38 32.23787    19.2262   2   8   0.0036   0.0061   0.0088   0.0019  -0.0030  -0.0029   2.00    0.0
2334 484263.0   45 57 00.98867  -66 38 32.23787    19.2262   2   8   0.0036   0.0061   0.0088   0.0019  -0.0030  -0.0029   3.00    0.0
2334 484264.0   45 57 00.98867  -66 38 32.23787    19.2261   2   8   0.0036   0.0061   0.0088   0.0019  -0.0030  -0.0029   4.00    0.0
2334 484265.0   45 57 00.98867  -66 38 32.23787    19.2261   2   8   0.0036   0.0061   0.0088   0.0019  -0.0030  -0.0029   5.00    0.0
2334 484266.0   45 57 00.98867  -66 38 32.23787    19.2260   2   8   0.0036   0.0061   0.0089   0.0019  -0.0030  -0.0029   6.00    0.0
2334 484267.0   45 57 00.98867  -66 38 32.23787    19.2260   2   8   0.0036   0.0061   0.0089   0.0019  -0.0030  -0.0029   7.00    0.0
2334 484268.0   45 57 00.98867  -66 38 32.23787    19.2260   2   8   0.0036   0.0061   0.0089   0.0019  -0.0030  -0.0029   8.00    0.0
2334 484269.0   45 57 00.98867  -66 38 32.23787    19.2259   2   8   0.0036   0.0061   0.0089   0.0019  -0.0030  -0.0029   9.00    0.0
2334 484270.0   45 57 00.98867  -66 38 32.23787    19.2259   2   8   0.0036   0.0061   0.0089   0.0019  -0.0030  -0.0029  10.00    0.0
2334 484271.0   45 57 00.98867  -66 38 32.23787    19.2258   2   8   0.0036   0.0061   0.0089   0.0019  -0.0030  -0.0029  11.00    0.0
2334 484272.0   45 57 00.98867  -66 38 32.23787    19.2258   2   8   0.0036   0.0061   0.0089   0.0019  -0.0030  -0.0029  12.00    0.0
2334 484273.0   45 57 00.98867  -66 38 32.23787    19.2257   2   8   0.0036   0.0061   0.0089   0.0019  -0.0030  -0.0029  13.00    0.0
2334 484274.0   45 57 00.98867  -66 38 32.23787    19.2257   2   8   0.0036   0.0061   0.0089   0.0019  -0.0030  -0.0029  14.00    0.0
2334 484275.0   45 57 00.98867  -66 38 32.23787    19.2256   2   8   0.0036   0.0061   0.0089   0.0019  -0.0030  -0.0029  15.00    0.0
2334 484276.0   45 57 00.98867  -66 38 32.23787    19.2255   2   8   0.0036   0.0061   0.0089   0.0019  -0.0030  -0.0029  16.00    0.0
2334 484277.0   45 57 00.98867  -66 38 32.23787    19.2254   2   8   0.0036   0.0061   0.0089   0.0019  -0.0030  -0.0029  17.00    0.0
2334 484278.0   45 57 00.98868  -66 38 32.23787    19.2253   2   8   0.0036   0.0061   0.0089   0.0019  -0.0030  -0.0029  18.00    0.0
2334 484279.0   45 57 00.98868  -66 38 32.23787    19.2252   2   8   0.0036   0.0061   0.0089   0.0019  -0.0030  -0.0029  19.00    0.0
2334 484280.0   45 57 00.98868  -66 38 32.23787    19.2250   2   8   0.0036   0.0061   0.0089   0.0019  -0.0030  -0.0029  20.00    0.0
2334 484281.0   45 57 00.98868  -66 38 32.23787    19.2249   2   8   0.0036   0.0061   0.0089   0.0019  -0.0030  -0.0029  21.00    0.0
2334 484282.0   45 57 00.98868  -66 38 32.23786    19.2247   2   8   0.0036   0.0061   0.0089   0.0019  -0.0030  -0.0029  22.00    0.0
2334 484283.0   45 57 00.98868  -66 38 32.23786    19.2245   2   8   0.0036   0.0061   0.0089   0.0019  -0.0030  -0.0029  23.00    0.0
2334 484284.0   45 57 00.98868  -66 38 32.23786    19.2244   2   8   0.0036   0.0061   0.0089   0.0019  -0.0030  -0.0029  24.00    0.0
2334 484285.0   45 57 00.98868  -66 38 32.23786    19.2242   2   8   0.0036   0.0061   0.0089   0.0019  -0.0030  -0.0029  25.00    0.0
2334 484286.0   45 57 00.98868  -66 38 32.23785    19.2240   2   8   0.0036   0.0061   0.0089   0.0019  -0.0030  -0.0029  26.00    0.0
2334 484287.0   45 57 00.98869  -66 38 32.23785    19.2238   2   8   0.0036   0.0061   0.0089   0.0019  -0.0030  -0.0029  27.00    0.0
2334 484288.0   45 57 00.98869  -66 38 32.23785    19.2237   2   8   0.0036   0.0061   0.0089   0.0019  -0.0030  -0.0029  28.00    0.0
2334 484289.0   45 57 00.98869  -66 38 32.23785    19.2235   2   8   0.0036   0.0061   0.0089   0.0019  -0.0030  -0.0029  29.00    0.0
2334 484290.0   45 57 00.98869  -66 38 32.23784    19.2233   2   8   0.0036   0.0061   0.0089   0.0019  -0.0030  -0.0029   0.00    0.0
2334 484291.0   45 57 00.98869  -66 38 32.23784    19.2232   2   8   0.0036   0.0061   0.0089   0.0019  -0.0030  -0.0029   1.00    0.0
2334 484292.0   45 57 00.98869  -66 38 32.23784    19.2231   2   8   0.0036   0.0061   0.0089   0.0019  -0.0030  -0.0029   2.00    0.0
2334 484293.0   45 57 00.98869  -66 38 32.23784    19.2231   2   8   0.0036   0.0061   0.0089   0.0019  -0.0030  -0.0029   3.00    0.0
2334 484294.0   45 57 00.98869  -66 38 32.23784    19.2231   2   8   0.0036   0.0061   0.0089   0.0019  -0.0030  -0.0029   4.00    0.0
2334 484295.0   45 57 00.98869  -66 38 32.23783    19.2231   2   8   0.0036   0.0061   0.0089   0.0019  -0.0030  -0.0029   5.00    0.0
2334 484296.0   45 57 00.98869  -66 38 32.23783    19.2231   2   8   0.0036   0.0061   0.0089   0.0019  -0.0030  -0.0029   6.00    0.0
2334 484297.0   45 57 00.98869  -66 38 32.23783    19.2230   2   8   0.0036   0.0061   0.0089   0.0019  -0.0030  -0.0029   7.00    0.0
2334 484298.0   45 57 00.98869  -66 38 32.23783    19.2230   2   8   0.0036   0.0061   0.0089   0.0019  -0.0030  -0.0029   8.00    0.0
2334 484299.0   45 57 00.98869  -66 38 32.23783    19.2230   2   8   0.0036   0.0061   0.0089   0.0019  -0.0030  -0.0029   9.00    0.0
2334 484300.0   45 57 00.98869  -66 38 32.23783    19.2230   2   8   0.0036   0.0061   0.0089   0.0019  -0.0030  -0.0029  10.00    0.0
2334 484301.0   45 57 00.98869  -66 38 32.23783    19.2229   2   8   0.0036   0.0061   0.0089   0.0019  -0.0030  -0.0029  11.00    0.0
2334 484302.0   45 57 00.98870  -66 38 32.23783    19.2229   2   8   0.0036   0.0061   0.0089   0.0019  -0.0030  -0.0029  12.00    0.0
2334 484303.0   45 57 00.98870  -66 38 32.23783    19.2228   2   8   0.0036   0.0061   0.0089   0.0019  -0.0030  -0.0029  13.00    0.0
2334 484304.0   45 57 00.98870  -66 38 32.23783    19.2228   2   8   0.0036   0.0061   0.0089   0.0019  -0.0030  -0.0029  14.00    0.0
2334 484305.0   45 57 00.98870  -66 38 32.23783    19.2227   2   8   0.0036   0.0061   0.0089   0.0019  -0.0030  -0.0029  15.00    0.0
2334 484306.0   45 57 00.98870  -66 38 32.23782    19.2227   2   8   0.0036   0.0061   0.0089   0.0019  -0.0030  -0.0029  16.00    0.0
2334 484307.0   45 57 00.98870  -66 38 32.23782    19.2226   2   8   0.0036   0.0061   0.0089   0.0019  -0.0030  -0.0029  17.00    0.0
2334 484308.0   45 57 00.98870  -66 38 32.23782    19.2225   2   8   0.0036   0.0061   0.0089   0.0019  -0.0030  -0.0029  18.00    0.0
2334 484309.0   45 57 00.98870  -66 38 32.23782    19.2225   2   8   0.0036   0.0061   0.0089   0.0019  -0.0030  -0.0029  19.00    0.0
2334 484310.0   45 57 00.98870  -66 38 32.23782    19.2224   2   8   0.0036   0.0061   0.0089   0.0019  -0.0030  -0.0029  20.00    0.0
2334 484311.0   45 57 00.98870  -66 38 32.23781    19.2223   2   8   0.0036   0.0061   0.0089   0.0019  -0.0030  -0.0029  21.00    0.0
2334 484312.0   45 57 00.98870  -66 38 32.23781    19.2222   2   8   0.0036   0.0061   0.0089   0.0019  -0.0030  -0.0029  22.00    0.0
2334 484313.0   45 57 00.98870  -66 38 32.23781    19.2221   2   8   0.0036   0.0061   0.0089   0.0019  -0.0030  -0.0029  23.00    0.0
2334 484314.0   45 57 00.98871  -66 38 32.23780    19.2220   2   8   0.0036   0.0061   0.0089   0.0019  -0.0030  -0.0029  24.00    0.0
2334 484315.0   45 57 00.98871  -66 38 32.23780    19.2219   2   8   0.0036   0.0061   0.0089   0.0019  -0.0030  -0.0029  25.00    0.0
2334 484316.0   45 57 00.98871  -66 38 32.23780    19.2218   2   8   0.0036   0.0061   0.0089   0.0019  -0.0030  -0.0029  26.00    0.0
2334 484317.0   45 57 00.98871  -66 38 32.23780    19.2217   2   8   0.0036   0.0061   0.0089   0.0019  -0.0030  -0.0029  27.00    0.0
2334 484318.0   45 57 00.98871  -66 38 32.23779    19.2216   2   8   0.0036   0.0061   0.0089   0.0019  -0.0030  -0.0029  28.00    0.0
2334 484319.0   45 57 00.98871  -66 38 32.23779    19.2215   2   8   0.0036   0.0061   0.0089   0.0019  -0.0030  -0.0029  29.00    0.0
2334 484320.0   45 57 00.98871  -66 38 32.23779    19.2213   2   8   0.0036   0.0061   0.0089   0.0019  -0.0030  -0.0029   0.00    0.0
2334 484321.0   45 57 00.98871  -66 38 32.23778    19.2212   2   8   0.0036   0.0061   0.0089   0.0019  -0.0030  -0.0029   1.00    0.0
2334 484322.0   45 57 00.98871  -66 38 32.23778    19.2212   2   8   0.0036   0.0061   0.0089   0.0019  -0.0030  -0.0029   2.00    0.0
2334 484323.0   45 57 00.98871  -66 38 32.23778    19.2212   2   8   0.0036   0.0061   0.0089   0.0019  -0.0030  -0.0029   3.00    0.0
2334 484324.0   45 57 00.98871  -66 38 32.23778    19.2212   2   8   0.0036   0.0061   0.0089   0.0019  -0.0030  -0.0029   4.00    0.0
2334 484325.0   45 57 00.98871  -66 38 32.23778    19.2211   2   8   0.0036   0.0061   0.0089   0.0019  -0.0030  -0.0029   5.00    0.0
2334 484326.0   45 57 00.98871  -66 38 32.23778    19.2211   2   8   0.0036   0.0061   0.0089   0.0019  -0.0030  -0.0029   6.00    0.0
2334 484327.0   45 57 00.98871  -66 38 32.23778    19.2210   2   8   0.0036   0.0061   0.0089   0.0019  -0.0030  -0.0029   7.00    0.0
2334 484328.0   45 57 00.98871  -66 38 32.23778    19.2210   2   8   0.0036   0.0061   0.0089   0.0019  -0.0030  -0.0029   8.00    0.0
2334 484329.0   45 57 00.98871  -66 38 32.23778    19.2210   2   8   0.0036   0.0061   0.0089   0.0019  -0.0030  -0.0029   9.00    0.0
2334 484330.0   45 57 00.98871  -66 38 32.23778    19.2209   2   8   0.0036   0.0061   0.0089   0.0019  -0.0030  -0.0029  10.00    0.0
2334 484331.0   45 57 00.98871  -66 38 32.23778    19.2209   2   8   0.0036   0.0061   0.0089   0.0019  -0.0030  -0.0029  11.00    0.0
2334 484332.0   45 57 00.98871  -66 38 32.23778    19.2208   2   8   0.0036   0.0061   0.0089   0.0019  -0.0030  -0.0029  12.00    0.0
2334 484333.0   45 57 00.98871  -66 38 32.23778    19.2208   2   8   0.0036   0.0061   0.0089   0.0019  -0.0030  -0.0029  13.00    0.0
2334 484334.0   45 57 00.98871  -66 38 32.23778    19.2207   2   8   0.0036   0.0061   0.0089   0.0019  -0.0030  -0.0029  14.00    0.0
2334 484335.0   45 57 00.98871  -66 38 32.23778    19.2207   2   8   0.0036   0.0061   0.0089   0.0019  -0.0030  -0.0029  15.00    0.0
2334 484336.0   45 57 00.98871  -66 38 32.23778    19.2206   2   8   0.0036   0.0061   0.0089   0.0019  -0.0030  -0.0029  16.00    0.0
2334 484337.0   45 57 00.98871  -66 38 32.23778    19.2206   2   8   0.0036   0.0061   0.0089   0.0019  -0.0030  -0.0029  17.00    0.0
2334 484338.0   45 57 00.98871  -66 38 32.23777    19.2205   2   8   0.0036   0.0061   0.0089   0.0019  -0.0030  -0.0029  18.00    0.0
2334 484339.0   45 57 00.98871  -66 38 32.23777    19.2204   2   8   0.0036   0.0061   0.0089   0.0019  -0.0030  -0.0029  19.00    0.0
2334 484340.0   45 57 00.98871  -66 38 32.23777    19.2204   2   8   0.0036   0.0061   0.0089   0.0019  -0.0030  -0.0029  20.00    0.0
2334 484341.0   45 57 00.98871  -66 38 32.23777    19.2203   2   8   0.0036   0.0061   0.0089   0.0019  -0.0030  -0.0029  21.00    0.0
2334 484342.0   45 57 00.98871  -66 38 32.23777    19.2202   2   8   0.0036   0.0061   0.0089   0.0019  -0.0030  -0.0029  22.00    0.0
2334 484343.0   45 57 00.98871  -66 38 32.23777    19.2201   2   8   0.0036   0.0061   0.0089   0.0019  -0.0031  -0.0029  23.00    0.0
2334 484344.0   45 57 00.98871  -66 38 32.23777    19.2201   2   8   0.0036   0.0061   0.0089   0.0019  -0.0031  -0.0029  24.00    0.0
2334 484345.0   45 57 00.98871  -66 38 32.23776    19.2200   2   8   0.0036   0.0061   0.0089   0.0019  -0.0031  -0.0029  25.00    0.0
2334 484346.0   45 57 00.98871  -66 38 32.23776    19.2198   2   8   0.0036   0.0061   0.0089   0.0019  -0.0031  -0.0029  26.00    0.0
2334 484347.0   45 57 00.98871  -66 38 32.23776    19.2197   2   8   0.0036   0.0061   0.0089   0.0019  -0.0031  -0.0029  27.00    0.0
2334 484348.0   45 57 00.98871  -66 38 32.23776    19.2196   2   8   0.0036   0.0061   0.0089   0.0019  -0.0031  -0.0029  28.00    0.0
2334 484349.0   45 57 00.98871  -66 38 32.23775    19.2194   2   8   0.0036   0.0061   0.0089   0.0019  -0.0031  -0.0029  29.00    0.0
2334 484350.0   45 57 00.98871  -66 38 32.23775    19.2192   2   8   0.0036   0.0061   0.0089   0.0019  -0.0031  -0.0029   0.00    0.0
2334 484351.0   45 57 00.98870  -66 38 32.23775    19.2190   2   8   0.0036   0.0061   0.0089   0.0019  -0.0031  -0.0029   1.00    0.0
2334 484352.0   45 57 00.98870  -66 38 32.23775    19.2189   2   8   0.0036   0.0061   0.0089   0.0019  -0.0031  -0.0029   2.00    0.0
2334 484353.0   45 57 00.98870  -66 38 32.23775    19.2189   2   8   0.0036   0.0061   0.0089   0.0019  -0.0031  -0.0029   3.00    0.0
2334 484354.0   45 57 00.98870  -66 38 32.23774    19.2188   2   8   0.0036   0.0061   0.0089   0.0019  -0.0031  -0.0029   4.00    0.0
2334 484355.0   45 57 00.98870  -66 38 32.23774    19.2187   2   8   0.0036   0.0061   0.0089   0.0019  -0.0031  -0.0029   5.00    0.0
2334 484356.0   45 57 00.98870  -66 38 32.23774    19.2186   2   8   0.0036   0.0061   0.0089   0.0019  -0.0031  -0.0029   6.00    0.0
2334 484357.0   45 57 00.98870  -66 38 32.23774    19.2185   2   8   0.0036   0.0061   0.0089   0.0019  -0.0031  -0.0029   7.00    0.0
2334 484358.0   45 57 00.98870  -66 38 32.23774    19.2184   2   8   0.0036   0.0061   0.0089   0.0019  -0.0031  -0.0029   8.00    0.0
2334 484359.0   45 57 00.98870  -66 38 32.23773    19.2184   2   8   0.0036   0.0061   0.0089   0.0019  -0.0031  -0.0029   9.00    0.0
2334 484360.0   45 57 00.98871  -66 38 32.23773    19.2183   2   8   0.0036   0.0061   0.0089   0.0019  -0.0031  -0.0029  10.00    0.0
2334 484361.0   45 57 00.98871  -66 38 32.23773    19.2182   2   8   0.0036   0.0061   0.0089   0.0019  -0.0031  -0.0029  11.00    0.0
2334 484362.0   45 57 00.98871  -66 38 32.23773    19.2181   2   8   0.0036   0.0061   0.0089   0.0019  -0.0031  -0.0029  12.00    0.0
2334 484363.0   45 57 00.98871  -66 38 32.23773    19.2180   2   8   0.0036   0.0061   0.0089   0.0019  -0.0031  -0.0029  13.00    0.0
2334 484364.0   45 57 00.98871  -66 38 32.23772    19.2179   2   8   0.0036   0.0061   0.0089   0.0019  -0.0031  -0.0029  14.00    0.0
2334 484365.0   45 57 00.98871  -66 38 32.23772    19.2178   2   8   0.0036   0.0061   0.0089   0.0019  -0.0031  -0.0029  15.00    0.0
2334 484366.0   45 57 00.98871  -66 38 32.23772    19.2177   2   8   0.0036   0.0061   0.0089   0.0019  -0.0031  -0.0029  16.00    0.0
2334 484367.0   45 57 00.98871  -66 38 32.23772    19.2176   2   8   0.0036   0.0061   0.0089   0.0019  -0.0031  -0.0029  17.00    0.0
2334 484368.0   45 57 00.98871  -66 38 32.23771    19.2175   2   8   0.0036   0.0061   0.0089   0.0019  -0.0031  -0.0029  18.00    0.0
2334 484369.0   45 57 00.98871  -66 38 32.23771    19.2173   2   8   0.0036   0.0061   0.0089   0.0019  -0.0031  -0.0029  19.00    0.0
2334 484370.0   45 57 00.98871  -66 38 32.23771    19.2172   2   8   0.0036   0.0061   0.0089   0.0019  -0.0031  -0.0029  20.00    0.0
2334 484371.0   45 57 00.98871  -66 38 32.23770    19.2171   2   8   0.0036   0.0061   0.0089   0.0019  -0.0031  -0.0029  21.00    0.0
2334 484372.0   45 57 00.98871  -66 38 32.23770    19.2170   2   8   0.0036   0.0061   0.0089   0.0019  -0.0031  -0.0029  22.00    0.0
2334 484373.0   45 57 00.98871  -66 38 32.23770    19.2168   2   8   0.0036   0.0061   0.0089   0.0019  -0.0031  -0.0029  23.00    0.0
2334 484374.0   45 57 00.98871  -66 38 32.23770    19.2167   2   8   0.0036   0.0061   0.0090   0.0019  -0.0031  -0.0029  24.00    0.0
2334 484375.0   45 57 00.98871  -66 38 32.23769    19.2166   2   8   0.0036   0.0061   0.0090   0.0019  -0.0031  -0.0029  25.00    0.0
2334 484376.0   45 57 00.98871  -66 38 32.23769    19.2164   2   8   0.0036   0.0061   0.0090   0.0019  -0.0031  -0.0029  26.00    0.0
2334 484377.0   45 57 00.98871  -66 38 32.23769    19.2162   2   8   0.0036   0.0061   0.0090   0.0019  -0.0031  -0.0029  27.00    0.0
2334 484378.0   45 57 00.98871  -66 38 32.23768    19.2161   2   8   0.0036   0.0061   0.0090   0.0019  -0.0031  -0.0029  28.00    0.0
2334 484379.0   45 57 00.98871  -66 38 32.23768    19.2159   2   8   0.0036   0.0061   0.0090   0.0019  -0.0031  -0.0029  29.00    0.0
2334 484380.0   45 57 00.98871  -66 38 32.23768    19.2158   2   8   0.0036   0.0061   0.0090   0.0019  -0.0031  -0.0029   0.00    0.0
2334 484381.0   45 57 00.98871  -66 38 32.23768    19.2156   2   8   0.0036   0.0061   0.0090   0.0019  -0.0031  -0.0029   1.00    0.0
2334 484382.0   45 57 00.98871  -66 38 32.23768    19.2156   2   8   0.0036   0.0061   0.0090   0.0019  -0.0031  -0.0029   2.00    0.0
2334 484383.0   45 57 00.98871  -66 38 32.23768    19.2156   2   8   0.0036   0.0061   0.0090   0.0019  -0.0031  -0.0029   3.00    0.0
2334 484384.0   45 57 00.98871  -66 38 32.23768    19.2156   2   8   0.0036   0.0061   0.0090   0.0019  -0.0031  -0.0029   4.00    0.0
2334 484385.0   45 57 00.98871  -66 38 32.23768    19.2156   2   8   0.0036   0.0061   0.0090   0.0019  -0.0031  -0.0029   5.00    0.0
2334 484386.0   45 57 00.98871  -66 38 32.23768    19.2155   2   8   0.0036   0.0061   0.0090   0.0019  -0.0031  -0.0029   6.00    0.0
2334 484387.0   45 57 00.98871  -66 38 32.23768    19.2155   2   8   0.0036   0.0061   0.0090   0.0019  -0.0031  -0.0029   7.00    0.0
2334 484388.0   45 57 00.98871  -66 38 32.23768    19.2155   2   8   0.0036   0.0061   0.0090   0.0019  -0.0031  -0.0029   8.00    0.0
2334 484389.0   45 57 00.98871  -66 38 32.23768    19.2154   2   8   0.0036   0.0061   0.0090   0.0019  -0.0031  -0.0029   9.00    0.0
2334 484390.0   45 57 00.98871  -66 38 32.23768    19.2154   2   8   0.0036   0.0061   0.0090   0.0019  -0.0031  -0.0029  10.00    0.0
2334 484391.0   45 57 00.98871  -66 38 32.23768    19.2154   2   8   0.0036   0.0061   0.0090   0.0019  -0.0031  -0.0029  11.00    0.0
2334 484392.0   45 57 00.98871  -66 38 32.23768    19.2153   2   8   0.0036   0.0061   0.0090   0.0019  -0.0031  -0.0029  12.00    0.0
2334 484393.0   45 57 00.98871  -66 38 32.23768    19.2153   2   8   0.0036   0.0061   0.0090   0.0019  -0.0031  -0.0029  13.00    0.0
2334 484394.0   45 57 00.98871  -66 38 32.23768    19.2153   2   8   0.0036   0.0061   0.0090   0.0019  -0.0031  -0.0029  14.00    0.0
2334 484395.0   45 57 00.98871  -66 38 32.23768    19.2152   2   8   0.0036   0.0061   0.0090   0.0019  -0.0031  -0.0029  15.00    0.0
2334 484396.0   45 57 00.98871  -66 38 32.23768    19.2152   2   8   0.0036   0.0061   0.0090   0.0019  -0.0031  -0.0029  16.00    0.0
2334 484397.0   45 57 00.98871  -66 38 32.23768    19.2152   2   8   0.0036   0.0061   0.0090   0.0019  -0.0031  -0.0029  17.00    0.0
2334 484398.0   45 57 00.98871  -66 38 32.23768    19.2151   2   8   0.0036   0.0061   0.0090   0.0019  -0.0031  -0.0029  18.00    0.0
2334 484399.0   45 57 00.98871  -66 38 32.23768    19.2151   2   8   0.0036   0.0061   0.0090   0.0019  -0.0031  -0.0029  19.00    0.0
2334 484400.0   45 57 00.98871  -66 38 32.23768    19.2151   2   8   0.0036   0.0061   0.0090   0.0019  -0.0031  -0.0029  20.00    0.0
2334 484401.0   45 57 00.98871  -66 38 32.23768    19.2150   2   8   0.0036   0.0061   0.0090   0.0019  -0.0031  -0.0029  21.00    0.0
2334 484402.0   45 57 00.98871  -66 38 32.23768    19.2150   2   8   0.0036   0.0061   0.0090   0.0019  -0.0031  -0.0029  22.00    0.0
2334 484403.0   45 57 00.98871  -66 38 32.23768    19.2149   2   8   0.0036   0.0061   0.0090   0.0019  -0.0031  -0.0029  23.00    0.0
2334 484404.0   45 57 00.98871  -66 38 32.23768    19.2149   2   8   0.0036   0.0061   0.0090   0.0019  -0.0031  -0.0029  24.00    0.0
2334 484405.0   45 57 00.98871  -66 38 32.23768    19.2149   2   8   0.0036   0.0061   0.0090   0.0019  -0.0031  -0.0029  25.00    0.0
2334 484406.0   45 57 00.98871  -66 38 32.23768    19.2148   2   8   0.0036   0.0061   0.0090   0.0019  -0.0031  -0.0029  26.00    0.0
2334 484407.0   45 57 00.98871  -66 38 32.23768    19.2147   2   8   0.0036   0.0061   0.0090   0.0019  -0.0031  -0.0029  27.00    0.0
2334 484408.0   45 57 00.98871  -66 38 32.23768    19.2147   2   8   0.0036   0.0061   0.0090   0.0019  -0.0031  -0.0029  28.00    0.0
2334 484409.0   45 57 00.98871  -66 38 32.23768    19.2146   2   8   0.0036   0.0061   0.0090   0.0019  -0.0031  -0.0029  29.00    0.0
2334 484410.0   45 57 00.98871  -66 38 32.23768    19.2146   2   8   0.0036   0.0061   0.0090   0.0019  -0.0031  -0.0029   0.00    0.0
2334 484411.0   45 57 00.98871  -66 38 32.23768    19.2145   2   8   0.0037   0.0061   0.0090   0.0019  -0.0031  -0.0029   1.00    0.0
2334 484412.0   45 57 00.98871  -66 38 32.23769    19.2145   2   8   0.0036   0.0061   0.0090   0.0019  -0.0031  -0.0029   2.00    0.0
2334 484413.0   45 57 00.98871  -66 38 32.23768    19.2145   2   8   0.0036   0.0061   0.0090   0.0019  -0.0031  -0.0029   3.00    0.0
2334 484414.0   45 57 00.98871  -66 38 32.23768    19.2145   2   8   0.0036   0.0061   0.0090   0.0019  -0.0031  -0.0029   4.00    0.0
2334 484415.0   45 57 00.98871  -66 38 32.23768    19.2145   2   8   0.0036   0.0061   0.0090   0.0019  -0.0031  -0.0029   5.00    0.0
2334 484416.0   45 57 00.98871  -66 38 32.23768    19.2144   2   8   0.0036   0.0061   0.0090   0.0019  -0.0031  -0.0029   6.00    0.0
2334 484417.0   45 57 00.98871  -66 38 32.23768    19.2143   2   8   0.0036   0.0061   0.0090   0.0019  -0.0031  -0.0029   7.00    0.0
2334 484418.0   45 57 00.98871  -66 38 32.23768    19.2143   2   8   0.0036   0.0061   0.0090   0.0019  -0.0031  -0.0029   8.00    0.0
2334 484419.0   45 57 00.98872  -66 38 32.23768    19.2142   2   8   0.0036   0.0061   0.0090   0.0019  -0.0031  -0.0029   9.00    0.0
2334 484420.0   45 57 00.98872  -66 38 32.23768    19.2141   2   8   0.0036   0.0061   0.0090   0.0019  -0.0031  -0.0029  10.00    0.0
2334 484421.0   45 57 00.98872  -66 38 32.23768    19.2141   2   8   0.0036   0.0061   0.0090   0.0019  -0.0031  -0.0029  11.00    0.0
2334 484422.0   45 57 00.98872  -66 38 32.23768    19.2140   2   8   0.0036   0.0061   0.0090   0.0019  -0.0031  -0.0029  12.00    0.0
2334 484423.0   45 57 00.98872  -66 38 32.23768    19.2139   2   8   0.0037   0.0061   0.0090   0.0019  -0.0031  -0.0029  13.00    0.0
2334 484424.0   45 57 00.98872  -66 38 32.23767    19.2138   2   8   0.0037   0.0061   0.0090   0.0019  -0.0031  -0.0029  14.00    0.0
2334 484425.0   45 57 00.98872  -66 38 32.23767    19.2137   2   8   0.0037   0.0061   0.0090   0.0019  -0.0031  -0.0029  15.00    0.0
2334 484426.0   45 57 00.98872  -66 38 32.23767    19.2136   2   8   0.0037   0.0061   0.0090   0.0019  -0.0031  -0.0029  16.00    0.0
2334 484427.0   45 57 00.98872  -66 38 32.23767    19.2135   2   8   0.0037   0.0061   0.0090   0.0019  -0.0031  -0.0029  17.00    0.0
2334 484428.0   45 57 00.98872  -66 38 32.23767    19.2134   2   8   0.0037   0.0061   0.0090   0.0019  -0.0031  -0.0029  18.00    0.0
2334 484429.0   45 57 00.98872  -66 38 32.23766    19.2133   2   8   0.0037   0.0061   0.0090   0.0019  -0.0031  -0.0029  19.00    0.0
2334 484430.0   45 57 00.98872  -66 38 32.23766    19.2132   2   8   0.0037   0.0061   0.0090   0.0019  -0.0031  -0.0029  20.00    0.0
2334 484431.0   45 57 00.98872  -66 38 32.23766    19.2130   2   8   0.0037   0.0061   0.0090   0.0019  -0.0031  -0.0029  21.00    0.0
2334 484432.0   45 57 00.98872  -66 38 32.23765    19.2129   2   8   0.0037   0.0061   0.0090   0.0019  -0.0031  -0.0029  22.00    0.0
2334 484433.0   45 57 00.98873  -66 38 32.23765    19.2127   2   8   0.0037   0.0061   0.0090   0.0019  -0.0031  -0.0029  23.00    0.0
2334 484434.0   45 57 00.98873  -66 38 32.23765    19.2125   2   8   0.0037   0.0061   0.0090   0.0019  -0.0031  -0.0029  24.00    0.0
2334 484435.0   45 57 00.98873  -66 38 32.23764    19.2124   2   8   0.0037   0.0061   0.0090   0.0019  -0.0031  -0.0029  25.00    0.0
2334 484436.0   45 57 00.98873  -66 38 32.23764    19.2122   2   8   0.0037   0.0061   0.0090   0.0019  -0.0031  -0.0029  26.00    0.0
2334 484437.0   45 57 00.98873  -66 38 32.23764    19.2120   2   8   0.0037   0.0061   0.0090   0.0019  -0.0031  -0.0029  27.00    0.0
2334 484438.0   45 57 00.98873  -66 38 32.23764    19.2119   2   8   0.0037   0.0061   0.0090   0.0019  -0.0031  -0.0029  28.00    0.0
2334 484439.0   45 57 00.98873  -66 38 32.23763    19.2117   2   8   0.0037   0.0061   0.0090   0.0019  -0.0031  -0.0029  29.00    0.0
2334 484440.0   45 57 00.98873  -66 38 32.23763    19.2116   2   8   0.0037   0.0061   0.0090   0.0019  -0.0031  -0.0029   0.00    0.0
2334 484441.0   45 57 00.98874  -66 38 32.23763    19.2116   2   8   0.0037   0.0061   0.0090   0.0019  -0.0031  -0.0029   1.00    0.0
2334 484442.0   45 57 00.98874  -66 38 32.23763    19.2116   2   8   0.0037   0.0061   0.0090   0.0019  -0.0031  -0.0029   2.00    0.0
2334 484443.0   45 57 00.98874  -66 38 32.23763    19.2116   2   8   0.0037   0.0061   0.0090   0.0019  -0.0031  -0.0029   3.00    0.0
2334 484444.0   45 57 00.98874  -66 38 32.23763    19.2115   2   8   0.0037   0.0061   0.0090   0.0019  -0.0031  -0.0029   4.00    0.0
2334 484445.0   45 57 00.98874  -66 38 32.23763    19.2115   2   8   0.0037   0.0061   0.0090   0.0019  -0.0031  -0.0029   5.00    0.0
2334 484446.0   45 57 00.98874  -66 38 32.23763    19.2115   2   8   0.0037   0.0061   0.0090   0.0019  -0.0031  -0.0029   6.00    0.0
2334 484447.0   45 57 00.98874  -66 38 32.23763    19.2115   2   8   0.0037   0.0061   0.0090   0.0019  -0.0031  -0.0029   7.00    0.0
2334 484448.0   45 57 00.98874  -66 38 32.23763    19.2114   2   8   0.0037   0.0061   0.0090   0.0019  -0.0031  -0.0029   8.00    0.0
2334 484449.0   45 57 00.98874  -66 38 32.23763    19.2114   2   8   0.0037   0.0061   0.0090   0.0019  -0.0031  -0.0029   9.00    0.0
2334 484450.0   45 57 00.98874  -66 38 32.23762    19.2113   2   8   0.0037   0.0061   0.0090   0.0019  -0.0031  -0.0029  10.00    0.0
2334 484451.0   45 57 00.98874  -66 38 32.23762    19.2112   2   8   0.0037   0.0061   0.0090   0.0019  -0.0031  -0.0029  11.00    0.0
2334 484452.0   45 57 00.98874  -66 38 32.23762    19.2111   2   8   0.0037   0.0061   0.0090   0.0019  -0.0031  -0.0029  12.00    0.0
2334 484453.0   45 57 00.98875  -66 38 32.23762    19.2110   2   8   0.0037   0.0061   0.0090   0.0019  -0.0031  -0.0029  13.00    0.0
2334 484454.0   45 57 00.98875  -66 38 32.23762    19.2109   2   8   0.0037   0.0061   0.0090   0.0019  -0.0031  -0.0029  14.00    0.0
2334 484455.0   45 57 00.98875  -66 38 32.23761    19.2108   2   8   0.0037   0.0061   0.0090   0.0019  -0.0031  -0.0029  15.00    0.0
2334 484456.0   45 57 00.98875  -66 38 32.23761    19.2107   2   8   0.0037   0.0061   0.0090   0.0019  -0.0031  -0.0029  16.00    0.0
2334 484457.0   45 57 00.98875  -66 38 32.23761    19.2106   2   8   0.0037   0.0061   0.0090   0.0019  -0.0031  -0.0029  17.00    0.0
2334 484458.0   45 57 00.98875  -66 38 32.23761    19.2105   2   8   0.0037   0.0061   0.0090   0.0019  -0.0031  -0.0029  18.00    0.0
2334 484459.0   45 57 00.98875  -66 38 32.23760    19.2103   2   8   0.0037   0.0061   0.0090   0.0019  -0.0031  -0.0029  19.00    0.0
2334 484460.0   45 57 00.98875  -66 38 32.23760    19.2102   2   8   0.0037   0.0061   0.0090   0.0019  -0.0031  -0.0029  20.00    0.0
2334 484461.0   45 57 00.98875  -66 38 32.23760    19.2101   2   8   0.0037   0.0061   0.0090   0.0019  -0.0031  -0.0029  21.00    0.0
2334 484462.0   45 57 00.98876  -66 38 32.23759    19.2100   2   8   0.0037   0.0061   0.0090   0.0019  -0.0031  -0.0029  22.00    0.0
2334 484463.0   45 57 00.98876  -66 38 32.23759    19.2098   2   8   0.0037   0.0061   0.0090   0.0019  -0.0031  -0.0029  23.00    0.0
2334 484464.0   45 57 00.98876  -66 38 32.23759    19.2097   2   8   0.0037   0.0061   0.0090   0.0019  -0.0031  -0.0029  24.00    0.0
2334 484465.0   45 57 00.98876  -66 38 32.23759    19.2095   2   8   0.0037   0.0061   0.0090   0.0019  -0.0031  -0.0029  25.00    0.0
2334 484466.0   45 57 00.98876  -66 38 32.23758    19.2093   2   8   0.0037   0.0061   0.0090   0.0019  -0.0031  -0.0029  26.00    0.0
2334 484467.0   45 57 00.98876  -66 38 32.23758    19.2092   2   8   0.0037   0.0061   0.0090   0.0019  -0.0031  -0.0029  27.00    0.0
2334 484468.0   45 57 00.98877  -66 38 32.23757    19.2090   2   8   0.0037   0.0061   0.0090   0.0019  -0.0031  -0.0029  28.00    0.0
2334 484469.0   45 57 00.98877  -66 38 32.23757    19.2088   2   8   0.0037   0.0061   0.0090   0.0019  -0.0032  -0.0029  29.00    0.0
2334 484470.0   45 57 00.98877  -66 38 32.23757    19.2087   2   8   0.0037   0.0061   0.0090   0.0019  -0.0032  -0.0029   0.00    0.0
2334 484471.0   45 57 00.98877  -66 38 32.23756    19.2086   2   8   0.0037   0.0061   0.0090   0.0019  -0.0032  -0.0029   1.00    0.0
2334 484472.0   45 57 00.98877  -66 38 32.23756    19.2086   2   8   0.0037   0.0061   0.0090   0.0019  -0.0032  -0.0029   2.00    0.0
2334 484473.0   45 57 00.98877  -66 38 32.23756    19.2086   2   8   0.0037   0.0061   0.0090   0.0019  -0.0032  -0.0029   3.00    0.0
2334 484474.0   45 57 00.98877  -66 38 32.23756    19.2085   2   8   0.0037   0.0061   0.0090   0.0019  -0.0032  -0.0029   4.00    0.0
2334 484475.0   45 57 00.98877  -66 38 32.23756    19.2085   2   8   0.0037   0.0061   0.0090   0.0019  -0.0032  -0.0029   5.00    0.0
2334 484476.0   45 57 00.98877  -66 38 32.23756    19.2085   2   8   0.0037   0.0061   0.0090   0.0019  -0.0032  -0.0029   6.00    0.0
2334 484477.0   45 57 00.98877  -66 38 32.23756    19.2084   2   8   0.0037   0.0061   0.0090   0.0019  -0.0032  -0.0029   7.00    0.0
2334 484478.0   45 57 00.98877  -66 38 32.23756    19.2084   2   8   0.0037   0.0061   0.0090   0.0019  -0.0032  -0.0029   8.00    0.0
2334 484479.0   45 57 00.98877  -66 38 32.23756    19.2084   2   8   0.0037   0.0061   0.0090   0.0019  -0.0032  -0.0029   9.00    0.0
2334 484480.0   45 57 00.98877  -66 38 32.23756    19.2083   2   8   0.0037   0.0061   0.0090   0.0019  -0.0032  -0.0029  10.00    0.0
2334 484481.0   45 57 00.98877  -66 38 32.23756    19.2083   2   8   0.0037   0.0061   0.0090   0.0019  -0.0032  -0.0029  11.00    0.0
2334 484482.0   45 57 00.98877  -66 38 32.23756    19.2082   2   8   0.0037   0.0061   0.0090   0.0019  -0.0032  -0.0029  12.00    0.0
2334 484483.0   45 57 00.98877  -66 38 32.23756    19.2082   2   8   0.0037   0.0061   0.0090   0.0019  -0.0032  -0.0029  13.00    0.0
2334 484484.0   45 57 00.98877  -66 38 32.23756    19.2081   2   8   0.0037   0.0061   0.0090   0.0019  -0.0032  -0.0029  14.00    0.0
2334 484485.0   45 57 00.98877  -66 38 32.23756    19.2081   2   8   0.0037   0.0061   0.0090   0.0019  -0.0032  -0.0029  15.00    0.0
2334 484486.0   45 57 00.98877  -66 38 32.23756    19.2080   2   8   0.0037   0.0061   0.0090   0.0019  -0.0032  -0.0029  16.00    0.0
2334 484487.0   45 57 00.98877  -66 38 32.23755    19.2079   2   8   0.0037   0.0061   0.0090   0.0019  -0.0032  -0.0029  17.00    0.0
2334 484488.0   45 57 00.98877  -66 38 32.23755    19.2078   2   8   0.0037   0.0061   0.0090   0.0019  -0.0032  -0.0029  18.00    0.0
2334 484489.0   45 57 00.98877  -66 38 32.23755    19.2077   2   8   0.0037   0.0061   0.0090   0.0019  -0.0032  -0.0029  19.00    0.0
2334 484490.0   45 57 00.98877  -66 38 32.23755    19.2076   2   8   0.0037   0.0061   0.0090   0.0019  -0.0032  -0.0029  20.00    0.0
2334 484491.0   45 57 00.98877  -66 38 32.23755    19.2075   2   8   0.0037   0.0061   0.0090   0.0019  -0.0032  -0.0029  21.00    0.0
2334 484492.0   45 57 00.98877  -66 38 32.23754    19.2073   2   8   0.0037   0.0061   0.0090   0.0019  -0.0032  -0.0029  22.00    0.0
2334 484493.0   45 57 00.98877  -66 38 32.23754    19.2072   2   8   0.0037   0.0061   0.0090   0.0019  -0.0032  -0.0029  23.00    0.0
2334 484494.0   45 57 00.98877  -66 38 32.23754    19.2070   2   8   0.0037   0.0061   0.0090   0.0019  -0.0032  -0.0029  24.00    0.0
2334 484495.0   45 57 00.98877  -66 38 32.23754    19.2068   2   8   0.0037   0.0061   0.0090   0.0019  -0.0032  -0.0029  25.00    0.0
2334 484496.0   45 57 00.98877  -66 38 32.23753    19.2067   2   8   0.0037   0.0061   0.0090   0.0019  -0.0032  -0.0029  26.00    0.0
2334 484497.0   45 57 00.98877  -66 38 32.23753    19.2065   2   8   0.0037   0.0061   0.0091   0.0019  -0.0032  -0.0029  27.00    0.0
2334 484498.0   45 57 00.98877  -66 38 32.23753    19.2063   2   8   0.0037   0.0061   0.0091   0.0019  -0.0032  -0.0029  28.00    0.0
2334 484499.0   45 57 00.98877  -66 38 32.23753    19.2061   2   8   0.0037   0.0061   0.0091   0.0019  -0.0032  -0.0029  29.00    0.0
2334 484500.0   45 57 00.98877  -66 38 32.23752    19.2059   2   8   0.0037   0.0061   0.0091   0.0019  -0.0032  -0.0029   0.00    0.0
2334 484501.0   45 57 00.98877  -66 38 32.23752    19.2058   2   8   0.0037   0.0061   0.0091   0.0019  -0.0032  -0.0029   1.00    0.0
2334 484502.0   45 57 00.98877  -66 38 32.23752    19.2057   2   8   0.0037   0.0061   0.0091   0.0019  -0.0032  -0.0029   2.00    0.0
2334 484503.0   45 57 00.98877  -66 38 32.23752    19.2057   2   8   0.0037   0.0061   0.0091   0.0019  -0.0032  -0.0029   3.00    0.0
2334 484504.0   45 57 00.98878  -66 38 32.23752    19.2057   2   8   0.0037   0.0061   0.0091   0.0019  -0.0032  -0.0029   4.00    0.0
2334 484505.0   45 57 00.98878  -66 38 32.23752    19.2056   2   8   0.0037   0.0061   0.0091   0.0019  -0.0032  -0.0029   5.00    0.0
2334 484506.0   45 57 00.98878  -66 38 32.23752    19.2055   2   8   0.0037   0.0061   0.0091   0.0019  -0.0032  -0.0029   6.00    0.0
2334 484507.0   45 57 00.98878  -66 38 32.23752    19.2055   2   8   0.0037   0.0061   0.0091   0.0019  -0.0032  -0.0029   7.00    0.0
2334 484508.0   45 57 00.98878  -66 38 32.23752    19.2054   2   8   0.0037   0.0061   0.0091   0.0019  -0.0032  -0.0029   8.00    0.0
2334 484509.0   45 57 00.98878  -66 38 32.23751    19.2053   2   8   0.0037   0.0061   0.0091   0.0019  -0.0032  -0.0029   9.00    0.0
2334 484510.0   45 57 00.98878  -66 38 32.23751    19.2052   2   8   0.0037   0.0061   0.0091   0.0019  -0.0032  -0.0029  10.00    0.0
2334 484511.0   45 57 00.98878  -66 38 32.23751    19.2051   2   8   0.0037   0.0061   0.0091   0.0019  -0.0032  -0.0029  11.00    0.0
2334 484512.0   45 57 00.98878  -66 38 32.23751    19.2050   2   8   0.0037   0.0061   0.0091   0.0019  -0.0032  -0.0029  12.00    0.0
2334 484513.0   45 57 00.98878  -66 38 32.23751    19.2049   2   8   0.0037   0.0061   0.0091   0.0019  -0.0032  -0.0029  13.00    0.0
2334 484514.0   45 57 00.98878  -66 38 32.23751    19.2048   2   8   0.0037   0.0061   0.0091   0.0019  -0.0032  -0.0029  14.00    0.0
2334 484515.0   45 57 00.98878  -66 38 32.23751    19.2047   2   8   0.0037   0.0061   0.0091   0.0019  -0.0032  -0.0029  15.00    0.0
2334 484516.0   45 57 00.98878  -66 38 32.23750    19.2046   2   8   0.0037   0.0061   0.0091   0.0019  -0.0032  -0.0029  16.00    0.0
2334 484517.0   45 57 00.98878  -66 38 32.23750    19.2045   2   8   0.0037   0.0061   0.0091   0.0019  -0.0032  -0.0029  17.00    0.0
2334 484518.0   45 57 00.98878  -66 38 32.23750    19.2044   2   8   0.0037   0.0061   0.0091   0.0019  -0.0032  -0.0029  18.00    0.0
2334 484519.0   45 57 00.98878  -66 38 32.23750    19.2043   2   8   0.0037   0.0061   0.0091   0.0019  -0.0032  -0.0029  19.00    0.0
2334 484520.0   45 57 00.98878  -66 38 32.23749    19.2041   2   8   0.0037   0.0061   0.0091   0.0019  -0.0032  -0.0029  20.00    0.0
2334 484521.0   45 57 00.98879  -66 38 32.23749    19.2040   2   8   0.0037   0.0061   0.0091   0.0019  -0.0032  -0.0029  21.00    0.0
2334 484522.0   45 57 00.98879  -66 38 32.23749    19.2039   2   8   0.0037   0.0061   0.0091   0.0019  -0.0032  -0.0029  22.00    0.0
2334 484523.0   45 57 00.98879  -66 38 32.23749    19.2038   2   8   0.0037   0.0061   0.0091   0.0019  -0.0032  -0.0029  23.00    0.0
2334 484524.0   45 57 00.98879  -66 38 32.23749    19.2036   2   8   0.0037   0.0061   0.0091   0.0019  -0.0032  -0.0029  24.00    0.0
2334 484525.0   45 57 00.98879  -66 38 32.23748    19.2035   2   8   0.0037   0.0061   0.0091   0.0019  -0.0032  -0.0029  25.00    0.0
2334 484526.0   45 57 00.98879  -66 38 32.23748    19.2034   2   8   0.0037   0.0061   0.0091   0.0019  -0.0032  -0.0029  26.00    0.0
2334 484527.0   45 57 00.98879  -66 38 32.23748    19.2032   2   8   0.0037   0.0061   0.0091   0.0019  -0.0032  -0.0029  27.00    0.0
2334 484528.0   45 57 00.98879  -66 38 32.23748    19.2031   2   8   0.0037   0.0061   0.0091   0.0019  -0.0032  -0.0029  28.00    0.0
2334 484529.0   45 57 00.98879  -66 38 32.23747    19.2030   2   8   0.0037   0.0061   0.0091   0.0019  -0.0032  -0.0029  29.00    0.0
2334 484530.0   45 57 00.98879  -66 38 32.23747    19.2029   2   8   0.0037   0.0061   0.0091   0.0019  -0.0032  -0.0029   0.00    0.0
2334 484531.0   45 57 00.98879  -66 38 32.23747    19.2027   2   8   0.0037   0.0061   0.0091   0.0019  -0.0032  -0.0029   1.00    0.0
2334 484532.0   45 57 00.98879  -66 38 32.23747    19.2027   2   8   0.0037   0.0061   0.0091   0.0019  -0.0032  -0.0029   2.00    0.0
2334 484533.0   45 57 00.98879  -66 38 32.23747    19.2027   2   8   0.0037   0.0061   0.0091   0.0019  -0.0032  -0.0029   3.00    0.0
2334 484534.0   45 57 00.98879  -66 38 32.23747    19.2028   2   8   0.0037   0.0061   0.0091   0.0019  -0.0032  -0.0029   4.00    0.0
2334 484535.0   45 57 00.98879  -66 38 32.23747    19.2027   2   8   0.0037   0.0061   0.0091   0.0019  -0.0032  -0.0029   5.00    0.0
2334 484536.0   45 57 00.98879  -66 38 32.23747    19.2027   2   8   0.0037   0.0061   0.0091   0.0019  -0.0032  -0.0029   6.00    0.0
2334 484537.0   45 57 00.98880  -66 38 32.23747    19.2027   2   8   0.0037   0.0061   0.0091   0.0019  -0.0032  -0.0029   7.00    0.0
2334 484538.0   45 57 00.98880  -66 38 32.23747    19.2026   2   8   0.0037   0.0061   0.0091   0.0019  -0.0032  -0.0029   8.00    0.0
2334 484539.0   45 57 00.98880  -66 38 32.23747    19.2026   2   8   0.0037   0.0061   0.0091   0.0019  -0.0032  -0.0029   9.00    0.0
2334 484540.0   45 57 00.98880  -66 38 32.23747    19.2025   2   8   0.0037   0.0061   0.0091   0.0019  -0.0032  -0.0029  10.00    0.0
2334 484541.0   45 57 00.98880  -66 38 32.23747    19.2025   2   8   0.0037   0.0061   0.0091   0.0019  -0.0032  -0.0029  11.00    0.0
2334 484542.0   45 57 00.98880  -66 38 32.23747    19.2024   2   8   0.0037   0.0061   0.0091   0.0019  -0.0032  -0.0029  12.00    0.0
2334 484543.0   45 57 00.98880  -66 38 32.23747    19.2023   2   8   0.0037   0.0061   0.0091   0.0019  -0.0032  -0.0029  13.00    0.0
2334 484544.0   45 57 00.98880  -66 38 32.23746    19.2023   2   8   0.0037   0.0061   0.0091   0.0019  -0.0032  -0.0029  14.00    0.0
2334 484545.0   45 57 00.98880  -66 38 32.23746    19.2022   2   8   0.0037   0.0061   0.0091   0.0019  -0.0032  -0.0029  15.00    0.0
2334 484546.0   45 57 00.98880  -66 38 32.23746    19.2021   2   8   0.0037   0.0061   0.0091   0.0019  -0.0032  -0.0029  16.00    0.0
2334 484547.0   45 57 00.98880  -66 38 32.23746    19.2020   2   8   0.0037   0.0061   0.0091   0.0019  -0.0032  -0.0029  17.00    0.0
2334 484548.0   45 57 00.98880  -66 38 32.23746    19.2020   2   8   0.0037   0.0061   0.0091   0.0019  -0.0032  -0.0029  18.00    0.0
2334 484549.0   45 57 00.98880  -66 38 32.23746    19.2019   2   8   0.0037   0.0061   0.0091   0.0019  -0.0032  -0.0029  19.00    0.0
2334 484550.0   45 57 00.98880  -66 38 32.23746    19.2018   2   8   0.0037   0.0061   0.0091   0.0019  -0.0032  -0.0029  20.00    0.0
2334 484551.0   45 57 00.98880  -66 38 32.23746    19.2017   2   8   0.0037   0.0061   0.0091   0.0019  -0.0032  -0.0029  21.00    0.0
2334 484552.0   45 57 00.98880  -66 38 32.23746    19.2016   2   8   0.0037   0.0061   0.0091   0.0019  -0.0032  -0.0029  22.00    0.0
2334 484553.0   45 57 00.98880  -66 38 32.23745    19.2015   2   8   0.0037   0.0061   0.0091   0.0019  -0.0032  -0.0029  23.00    0.0
2334 484554.0   45 57 00.98880  -66 38 32.23745    19.2014   2   8   0.0037   0.0061   0.0091   0.0019  -0.0032  -0.0029  24.00    0.0
2334 484555.0   45 57 00.98880  -66 38 32.23745    19.2013   2   8   0.0037   0.0061   0.0091   0.0019  -0.0032  -0.0029  25.00    0.0
2334 484556.0   45 57 00.98881  -66 38 32.23745    19.2011   2   8   0.0037   0.0061   0.0091   0.0019  -0.0032  -0.0029  26.00    0.0
2334 484557.0   45 57 00.98881  -66 38 32.23744    19.2010   2   8   0.0037   0.0061   0.0091   0.0019  -0.0032  -0.0029  27.00    0.0
2334 484558.0   45 57 00.98881  -66 38 32.23744    19.2008   2   8   0.0037   0.0061   0.0091   0.0019  -0.0032  -0.0029  28.00    0.0
2334 484559.0   45 57 00.98881  -66 38 32.23744    19.2007   2   8   0.0037   0.0062   0.0091   0.0019  -0.0032  -0.0029  29.00    0.0
2334 484560.0   45 57 00.98881  -66 38 32.23744    19.2007   2   8   0.0037   0.0062   0.0091   0.0019  -0.0032  -0.0029   0.00    0.0
2334 484561.0   45 57 00.98881  -66 38 32.23744    19.2007   2   8   0.0037   0.0062   0.0091   0.0019  -0.0032  -0.0029   1.00    0.0
2334 484562.0   45 57 00.98881  -66 38 32.23744    19.2008   2   8   0.0037   0.0062   0.0091   0.0019  -0.0032  -0.0029   2.00    0.0
2334 484563.0   45 57 00.98881  -66 38 32.23744    19.2008   2   8   0.0037   0.0062   0.0091   0.0019  -0.0032  -0.0029   3.00    0.0
2334 484564.0   45 57 00.98881  -66 38 32.23744    19.2009   2   8   0.0037   0.0062   0.0091   0.0019  -0.0032  -0.0029   4.00    0.0
2334 484565.0   45 57 00.98881  -66 38 32.23744    19.2009   2   8   0.0037   0.0062   0.0091   0.0019  -0.0032  -0.0029   5.00    0.0
2334 484566.0   45 57 00.98881  -66 38 32.23744    19.2010   2   8   0.0037   0.0062   0.0091   0.0019  -0.0032  -0.0029   6.00    0.0
2334 484567.0   45 57 00.98881  -66 38 32.23744    19.2010   2   8   0.0037   0.0062   0.0091   0.0019  -0.0032  -0.0029   7.00    0.0
2334 484568.0   45 57 00.98881  -66 38 32.23745    19.2010   2   8   0.0037   0.0062   0.0091   0.0019  -0.0032  -0.0029   8.00    0.0
2334 484569.0   45 57 00.98881  -66 38 32.23745    19.2010   2   8   0.0037   0.0062   0.0091   0.0019  -0.0032  -0.0029   9.00    0.0
2334 484570.0   45 57 00.98881  -66 38 32.23745    19.2010   2   8   0.0037   0.0062   0.0091   0.0019  -0.0032  -0.0029  10.00    0.0
2334 484571.0   45 57 00.98881  -66 38 32.23745    19.2010   2   8   0.0037   0.0062   0.0091   0.0019  -0.0032  -0.0029  11.00    0.0
2334 484572.0   45 57 00.98881  -66 38 32.23745    19.2010   2   8   0.0037   0.0062   0.0091   0.0019  -0.0032  -0.0029  12.00    0.0
2334 484573.0   45 57 00.98881  -66 38 32.23745    19.2010   2   8   0.0037   0.0062   0.0091   0.0019  -0.0032  -0.0029  13.00    0.0
2334 484574.0   45 57 00.98881  -66 38 32.23745    19.2010   2   8   0.0037   0.0062   0.0091   0.0019  -0.0032  -0.0029  14.00    0.0
2334 484575.0   45 57 00.98881  -66 38 32.23744    19.2009   2   8   0.0037   0.0062   0.0091   0.0019  -0.0032  -0.0029  15.00    0.0
2334 484576.0   45 57 00.98881  -66 38 32.23744    19.2009   2   8   0.0037   0.0062   0.0091   0.0019  -0.0032  -0.0029  16.00    0.0
2334 484577.0   45 57 00.98881  -66 38 32.23744    19.2009   2   8   0.0037   0.0062   0.0091   0.0019  -0.0032  -0.0029  17.00    0.0
2334 484578.0   45 57 00.98881  -66 38 32.23744    19.2008   2   8   0.0037   0.0062   0.0091   0.0019  -0.0032  -0.0029  18.00    0.0
2334 484579.0   45 57 00.98881  -66 38 32.23744    19.2008   2   8   0.0037   0.0062   0.0091   0.0019  -0.0032  -0.0029  19.00    0.0
2334 484580.0   45 57 00.98881  -66 38 32.23744    19.2007   2   8   0.0037   0.0062   0.0091   0.0019  -0.0032  -0.0029  20.00    0.0
2334 484581.0   45 57 00.98881  -66 38 32.23744    19.2007   2   8   0.0037   0.0062   0.0091   0.0019  -0.0032  -0.0029  21.00    0.0
2334 484582.0   45 57 00.98881  -66 38 32.23744    19.2006   2   8   0.0037   0.0062   0.0091   0.0019  -0.0032  -0.0029  22.00    0.0
2334 484583.0   45 57 00.98881  -66 38 32.23744    19.2006   2   8   0.0037   0.0062   0.0091   0.0019  -0.0032  -0.0029  23.00    0.0
2334 484584.0   45 57 00.98881  -66 38 32.23743    19.2005   2   8   0.0037   0.0062   0.0091   0.0019  -0.0032  -0.0029  24.00    0.0
2334 484585.0   45 57 00.98881  -66 38 32.23743    19.2005   2   8   0.0037   0.0062   0.0091   0.0019  -0.0032  -0.0029  25.00    0.0
2334 484586.0   45 57 00.98881  -66 38 32.23743    19.2004   2   8   0.0037   0.0062   0.0091   0.0019  -0.0032  -0.0029  26.00    0.0
2334 484587.0   45 57 00.98881  -66 38 32.23743    19.2004   2   8   0.0037   0.0062   0.0091   0.0019  -0.0032  -0.0029  27.00    0.0
2334 484588.0   45 57 00.98881  -66 38 32.23743    19.2004   2   8   0.0037   0.0062   0.0091   0.0019  -0.0032  -0.0029  28.00    0.0
2334 484589.0   45 57 00.98881  -66 38 32.23743    19.2003   2   8   0.0037   0.0062   0.0091   0.0019  -0.0032  -0.0029  29.00    0.0
2334 484590.0   45 57 00.98881  -66 38 32.23743    19.2004   2   8   0.0037   0.0062   0.0091   0.0019  -0.0032  -0.0029   0.00    0.0
2334 484591.0   45 57 00.98881  -66 38 32.23743    19.2005   2   8   0.0037   0.0062   0.0091   0.0019  -0.0032  -0.0029   1.00    0.0
2334 484592.0   45 57 00.98881  -66 38 32.23743    19.2005   2   8   0.0037   0.0062   0.0091   0.0019  -0.0032  -0.0029   2.00    0.0
2334 484593.0   45 57 00.98881  -66 38 32.23743    19.2006   2   8   0.0037   0.0062   0.0091   0.0019  -0.0032  -0.0029   3.00    0.0
2334 484594.0   45 57 00.98881  -66 38 32.23743    19.2006   2   8   0.0037   0.0062   0.0091   0.0019  -0.0032  -0.0029   4.00    0.0
2334 484595.0   45 57 00.98882  -66 38 32.23743    19.2007   2   8   0.0037   0.0062   0.0091   0.0019  -0.0032  -0.0029   5.00    0.0
2334 484596.0   45 57 00.98882  -66 38 32.23743    19.2007   2   8   0.0037   0.0062   0.0091   0.0019  -0.0032  -0.0029   6.00    0.0
2334 484597.0   45 57 00.98882  -66 38 32.23743    19.2007   2   8   0.0037   0.0062   0.0091   0.0019  -0.0032  -0.0029   7.00    0.0
2334 484598.0   45 57 00.98882  -66 38 32.23743    19.2007   2   8   0.0037   0.0062   0.0091   0.0019  -0.0032  -0.0029   8.00    0.0
2334 484599.0   45 57 00.98882  -66 38 32.23743    19.2007   2   8   0.0037   0.0062   0.0091   0.0019  -0.0032  -0.0029   9.00    0.0
2334 484600.0   45 57 00.98882  -66 38 32.23743    19.2007   2   8   0.0037   0.0062   0.0091   0.0019  -0.0032  -0.0029  10.00    0.0
2334 484601.0   45 57 00.98882  -66 38 32.23744    19.2007   2   8   0.0037   0.0062   0.0091   0.0019  -0.0032  -0.0029  11.00    0.0
2334 484602.0   45 57 00.98882  -66 38 32.23744    19.2007   2   8   0.0037   0.0062   0.0091   0.0019  -0.0032  -0.0029  12.00    0.0
2334 484603.0   45 57 00.98882  -66 38 32.23744    19.2007   2   8   0.0037   0.0062   0.0091   0.0019  -0.0032  -0.0029  13.00    0.0
2334 484604.0   45 57 00.98882  -66 38 32.23744    19.2007   2   8   0.0037   0.0062   0.0091   0.0019  -0.0032  -0.0029  14.00    0.0
2334 484605.0   45 57 00.98882  -66 38 32.23744    19.2007   2   8   0.0037   0.0062   0.0091   0.0019  -0.0032  -0.0029  15.00    0.0
2334 484606.0   45 57 00.98882  -66 38 32.23744    19.2007   2   8   0.0037   0.0062   0.0091   0.0019  -0.0032  -0.0030  16.00    0.0
2334 484607.0   45 57 00.98882  -66 38 32.23744    19.2007   2   8   0.0037   0.0062   0.0091   0.0019  -0.0032  -0.0030  17.00    0.0
2334 484608.0   45 57 00.98882  -66 38 32.23744    19.2007   2   8   0.0037   0.0062   0.0091   0.0019  -0.0032  -0.0030  18.00    0.0
2334 484609.0   45 57 00.98882  -66 38 32.23744    19.2007   2   8   0.0037   0.0062   0.0091   0.0019  -0.0032  -0.0030  19.00    0.0
2334 484610.0   45 57 00.98882  -66 38 32.23743    19.2006   2   8   0.0037   0.0062   0.0091   0.0019  -0.0032  -0.0030  20.00    0.0
2334 484611.0   45 57 00.98882  -66 38 32.23743    19.2006   2   8   0.0037   0.0062   0.0091   0.0019  -0.0032  -0.0030  21.00    0.0
2334 484612.0   45 57 00.98882  -66 38 32.23743    19.2006   2   8   0.0037   0.0062   0.0091   0.0019  -0.0032  -0.0030  22.00    0.0
2334 484613.0   45 57 00.98882  -66 38 32.23743    19.2005   2   8   0.0037   0.0062   0.0091   0.0019  -0.0032  -0.0030  23.00    0.0
2334 484614.0   45 57 00.98882  -66 38 32.23743    19.2005   2   8   0.0037   0.0062   0.0091   0.0019  -0.0032  -0.0030  24.00    0.0
2334 484615.0   45 57 00.98882  -66 38 32.23743    19.2005   2   8   0.0037   0.0062   0.0091   0.0019  -0.0032  -0.0030  25.00    0.0
2334 484616.0   45 57 00.98882  -66 38 32.23743    19.2004   2   8   0.0037   0.0062   0.0091   0.0019  -0.0032  -0.0030  26.00    0.0
2334 484617.0   45 57 00.98882  -66 38 32.23743    19.2004   2   8   0.0037   0.0062   0.0091   0.0019  -0.0032  -0.0030  27.00    0.0
2334 484618.0   45 57 00.98882  -66 38 32.23743    19.2004   2   8   0.0037   0.0062   0.0091   0.0019  -0.0032  -0.0030  28.00    0.0
2334 484619.0   45 57 00.98882  -66 38 32.23743    19.2003   2   8   0.0037   0.0062   0.0091   0.0020  -0.0032  -0.0030  29.00    0.0
