%  GPST          latitude(d'")   longitude(d'")  height(m)   Q  ns   sdn(m)   sde(m)   sdu(m)  sdne(m)  sdeu(m)  sdue(m) age(s)  ratio
2334 495694.0   45 56 52.16401  -66 37 54.54166   -20.4612   6   7   0.2002   0.1802   0.5281  -0.0828   0.2026  -0.1720   0.00    0.0
2334 495695.0   45 56 52.16481  -66 37 54.54197   -20.4333   6   7   0.1982   0.1783   0.5219  -0.0814   0.2004  -0.1704   0.00    0.0
2334 495696.0   45 56 52.16556  -66 37 54.54187   -20.4246   6   7   0.1962   0.1765   0.5161  -0.0801   0.1983  -0.1690   0.00    0.0
2334 495697.0   45 56 52.16668  -66 37 54.54219   -20.4386   6   7   0.1944   0.1748   0.5106  -0.0789   0.1962  -0.1676   0.00    0.0
2334 495698.0   45 56 52.16725  -66 37 54.54225   -20.4150   6   7   0.1926   0.1731   0.5054  -0.0777   0.1942  -0.1663   0.00    0.0
2334 495699.0   45 56 52.16774  -66 37 54.54263   -20.4082   6   7   0.1909   0.1716   0.5004  -0.0765   0.1922  -0.1650   0.00    0.0
2334 495700.0   45 56 52.16814  -66 37 54.54302   -20.4109   6   7   0.1893   0.1701   0.4956  -0.0753   0.1903  -0.1638   0.00    0.0
2334 495701.0   45 56 52.16886  -66 37 54.54383   -20.4358   6   7   0.1877   0.1686   0.4910  -0.0742   0.1884  -0.1627   0.00    0.0
2334 495702.0   45 56 52.16956  -66 37 54.54497   -20.4683   6   7   0.1862   0.1672   0.4867  -0.0732   0.1866  -0.1616   0.00    0.0
2334 495703.0   45 56 52.17035  -66 37 54.54562   -20.4946   6   7   0.1848   0.1658   0.4825  -0.0721   0.1848  -0.1606   0.00    0.0
2334 495704.0   45 56 52.17095  -66 37 54.54600   -20.5083   6   7   0.1835   0.1645   0.4784  -0.0711   0.1830  -0.1596   0.00    0.0
2334 495705.0   45 56 52.17144  -66 37 54.54651   -20.5447   6   7   0.1822   0.1633   0.4745  -0.0701   0.1812  -0.1587   0.00    0.0
2334 495706.0   45 56 52.17205  -66 37 54.54666   -20.5654   6   7   0.1809   0.1621   0.4708  -0.0691   0.1795  -0.1579   0.00    0.0
2334 495707.0   45 56 52.17246  -66 37 54.54630   -20.5850   6   7   0.1797   0.1609   0.4672  -0.0681   0.1778  -0.1571   0.00    0.0
2334 495708.0   45 56 52.17282  -66 37 54.54599   -20.5643   6   7   0.1786   0.1598   0.4637  -0.0671   0.1761  -0.1563   0.00    0.0
2334 495709.0   45 56 52.17360  -66 37 54.54604   -20.5729   6   7   0.1775   0.1587   0.4603  -0.0662   0.1744  -0.1556   0.00    0.0
2334 495710.0   45 56 52.17430  -66 37 54.54614   -20.5637   6   7   0.1765   0.1577   0.4570  -0.0653   0.1728  -0.1549   0.00    0.0
2334 495711.0   45 56 52.17508  -66 37 54.54646   -20.5689   6   7   0.1755   0.1567   0.4539  -0.0643   0.1711  -0.1544   0.00    0.0
2334 495712.0   45 56 52.17572  -66 37 54.54619   -20.5742   6   7   0.1746   0.1557   0.4508  -0.0634   0.1695  -0.1538   0.00    0.0
2334 495713.0   45 56 52.17582  -66 37 54.54600   -20.5711   6   7   0.1737   0.1548   0.4479  -0.0625   0.1679  -0.1533   0.00    0.0
2334 495714.0   45 56 52.17645  -66 37 54.54573   -20.5827   6   7   0.1729   0.1540   0.4450  -0.0616   0.1662  -0.1529   0.00    0.0
2334 495715.0   45 56 52.17668  -66 37 54.54574   -20.6069   6   7   0.1722   0.1531   0.4422  -0.0608   0.1646  -0.1525   0.00    0.0
2334 495716.0   45 56 52.17718  -66 37 54.54593   -20.6331   6   7   0.1716   0.1524   0.4395  -0.0600   0.1629  -0.1522   0.00    0.0
2334 495717.0   45 56 52.17778  -66 37 54.54627   -20.6667   6   7   0.1711   0.1517   0.4369  -0.0593   0.1613  -0.1519   0.00    0.0
2334 495718.0   45 56 52.17837  -66 37 54.54631   -20.6787   6   7   0.1707   0.1510   0.4344  -0.0587   0.1596  -0.1516   0.00    0.0
2334 495719.0   45 56 52.17893  -66 37 54.54639   -20.7052   6   7   0.1705   0.1505   0.4320  -0.0583   0.1579  -0.1515   0.00    0.0
2334 495720.0   45 56 52.17956  -66 37 54.54642   -20.7480   6   7   0.1706   0.1501   0.4297  -0.0583   0.1562  -0.1513   0.00    0.0
2334 495721.0   45 56 52.18008  -66 37 54.54610   -20.7627   6   7   0.1713   0.1500   0.4275  -0.0591   0.1544  -0.1512   0.00    0.0
2334 495722.0   45 56 52.18087  -66 37 54.54613   -20.7769   6   7   0.1732   0.1503   0.4254  -0.0617   0.1524  -0.1509   0.00    0.0
2334 495723.0   45 56 52.18365  -66 37 54.54768   -20.7892   6   7   0.1793   0.1522   0.4234  -0.0703   0.1500  -0.1498   0.00    0.0
2334 495724.0   45 56 52.18306  -66 37 54.54545   -20.7922   6   6   0.1805   0.1527   0.4216  -0.0721   0.1479  -0.1496   0.00    0.0
2334 495725.0   45 56 52.18232  -66 37 54.54577   -20.8302   6   6   0.1801   0.1525   0.4198  -0.0708   0.1462  -0.1501   0.00    0.0
2334 495726.0   45 56 52.18168  -66 37 54.54418   -20.8257   6   6   0.1797   0.1524   0.4182  -0.0696   0.1446  -0.1508   0.00    0.0
2334 495727.0   45 56 52.18083  -66 37 54.54294   -20.8552   6   7   0.1791   0.1524   0.4167  -0.0678   0.1432  -0.1520   0.00    0.0
2334 495728.0   45 56 52.17956  -66 37 54.54106   -20.9149   6   7   0.1682   0.1489   0.4153  -0.0476   0.1433  -0.1551   0.00    0.0
2334 495729.0   45 56 52.17978  -66 37 54.54102   -20.9327   6   7   0.1692   0.1509   0.4145  -0.0482   0.1427  -0.1563   0.00    0.0
2334 495730.0   45 56 52.17973  -66 37 54.54133   -20.9466   6   7   0.1716   0.1566   0.4150  -0.0516   0.1450  -0.1577   0.00    0.0
2334 495731.0   45 56 52.18146  -66 37 54.54293   -21.0291   6   6   0.1782   0.1635   0.4140  -0.0639   0.1428  -0.1598   0.00    0.0
2334 495732.0   45 56 52.18180  -66 37 54.54173   -21.0875   6   5   0.1800   0.1655   0.4133  -0.0665   0.1395  -0.1611   0.00    0.0
2334 495733.0   45 56 52.18137  -66 37 54.53742   -21.1194   6   7   0.1802   0.1639   0.4129  -0.0632   0.1369  -0.1634   0.00    0.0
2334 495734.0   45 56 52.18424  -66 37 54.53853   -21.1715   6   7   0.1766   0.1411   0.4116  -0.0041   0.1369  -0.1738   0.00    0.0
2334 495735.0   45 56 52.18497  -66 37 54.53618   -21.2516   6   7   0.1807   0.1455   0.4162   0.0247   0.1372  -0.1814   0.00    0.0
2334 495736.0   45 56 52.18764  -66 37 54.53569   -21.3901   6   7   0.1866   0.1456   0.4211   0.0396   0.1310  -0.1912   0.00    0.0
2334 495737.0   45 56 52.19129  -66 37 54.53391   -21.5809   6   6   0.1958   0.1477   0.4293   0.0565   0.1211  -0.2052   0.00    0.0
2334 495738.0   45 56 52.20143  -66 37 54.52894   -22.0361   6   7   0.2086   0.1473   0.4428   0.0695   0.1078  -0.2249   0.00    0.0
2334 495739.0   45 56 52.19406  -66 37 54.53332   -21.7065   6   7   0.2913   0.1680   0.5434   0.1465  -0.1199  -0.3394   0.00    0.0
2334 495740.0   45 56 52.17438  -66 37 54.54424   -20.7794   6   7   0.1683   0.1313   0.3962   0.0111   0.1270  -0.1673   0.00    0.0
2334 495741.0   45 56 52.17629  -66 37 54.54335   -20.8978   6   7   0.1679   0.1306   0.3942   0.0157   0.1255  -0.1672   0.00    0.0
2334 495742.0   45 56 52.17787  -66 37 54.54202   -20.9828   6   7   0.1686   0.1302   0.3935   0.0222   0.1233  -0.1689   0.00    0.0
2334 495743.0   45 56 52.17969  -66 37 54.54106   -21.0909   6   7   0.1703   0.1301   0.3939   0.0293   0.1204  -0.1720   0.00    0.0
2334 495744.0   45 56 52.18145  -66 37 54.53953   -21.1846   6   7   0.1731   0.1303   0.3955   0.0369   0.1166  -0.1769   0.00    0.0
2334 495745.0   45 56 52.18440  -66 37 54.53778   -21.3280   6   7   0.1773   0.1310   0.3987   0.0453   0.1115  -0.1838   0.00    0.0
2334 495746.0   45 56 52.18778  -66 37 54.53589   -21.5198   6   7   0.1836   0.1323   0.4045   0.0550   0.1045  -0.1937   0.00    0.0
2334 495747.0   45 56 52.19293  -66 37 54.53307   -21.7894   6   7   0.1932   0.1349   0.4145   0.0667   0.0941  -0.2083   0.00    0.0
2334 495748.0   45 56 52.19985  -66 37 54.52881   -22.1176   6   7   0.2090   0.1409   0.4335   0.0814   0.0789  -0.2318   0.00    0.0
2334 495749.0   45 56 52.18015  -66 37 54.53976   -21.1664   6   5   0.2864   0.1610   0.5267   0.1479  -0.1310  -0.3358   0.00    0.0
2334 495750.0   45 56 52.17983  -66 37 54.53925   -21.1633   6   5   0.2846   0.1600   0.5234   0.1469  -0.1302  -0.3337   0.00    0.0
2334 495751.0   45 56 52.18352  -66 37 54.53661   -21.3533   6   7   0.2704   0.1550   0.5047   0.1358  -0.1114  -0.3156   0.00    0.0
2334 495752.0   45 56 52.16421  -66 37 54.54741   -20.4403   6   7   0.1342   0.1165   0.3458  -0.0474   0.1316  -0.1201   0.00    0.0
2334 495753.0   45 56 52.16561  -66 37 54.54652   -20.5269   6   7   0.1325   0.1155   0.3427  -0.0478   0.1310  -0.1177   0.00    0.0
2334 495754.0   45 56 52.16655  -66 37 54.54590   -20.5779   6   7   0.1311   0.1146   0.3399  -0.0478   0.1303  -0.1161   0.00    0.0
2334 495755.0   45 56 52.16725  -66 37 54.54533   -20.6068   6   7   0.1300   0.1138   0.3374  -0.0477   0.1295  -0.1148   0.00    0.0
2334 495756.0   45 56 52.16780  -66 37 54.54486   -20.6377   6   7   0.1290   0.1130   0.3351  -0.0475   0.1287  -0.1138   0.00    0.0
2334 495757.0   45 56 52.16855  -66 37 54.54455   -20.6581   6   7   0.1281   0.1123   0.3329  -0.0471   0.1279  -0.1130   0.00    0.0
2334 495758.0   45 56 52.16921  -66 37 54.54438   -20.6830   6   7   0.1272   0.1115   0.3307  -0.0467   0.1269  -0.1123   0.00    0.0
2334 495759.0   45 56 52.16968  -66 37 54.54393   -20.6941   6   7   0.1265   0.1108   0.3286  -0.0462   0.1260  -0.1117   0.00    0.0
2334 495760.0   45 56 52.16998  -66 37 54.54358   -20.7062   6   7   0.1258   0.1101   0.3266  -0.0457   0.1251  -0.1112   0.00    0.0
2334 495761.0   45 56 52.17039  -66 37 54.54318   -20.7258   6   7   0.1251   0.1094   0.3246  -0.0452   0.1241  -0.1108   0.00    0.0
2334 495762.0   45 56 52.17071  -66 37 54.54285   -20.7325   6   7   0.1245   0.1087   0.3227  -0.0446   0.1231  -0.1105   0.00    0.0
2334 495763.0   45 56 52.17119  -66 37 54.54267   -20.7421   6   7   0.1240   0.1080   0.3208  -0.0439   0.1221  -0.1103   0.00    0.0
2334 495764.0   45 56 52.17133  -66 37 54.54255   -20.7538   6   7   0.1235   0.1074   0.3190  -0.0432   0.1210  -0.1101   0.00    0.0
2334 495765.0   45 56 52.17152  -66 37 54.54233   -20.7632   6   7   0.1230   0.1067   0.3172  -0.0424   0.1199  -0.1101   0.00    0.0
2334 495766.0   45 56 52.17202  -66 37 54.54203   -20.7675   6   7   0.1226   0.1061   0.3155  -0.0416   0.1188  -0.1101   0.00    0.0
2334 495767.0   45 56 52.17241  -66 37 54.54193   -20.7764   6   7   0.1222   0.1055   0.3138  -0.0408   0.1177  -0.1102   0.00    0.0
2334 495768.0   45 56 52.17296  -66 37 54.54176   -20.7863   6   7   0.1219   0.1049   0.3122  -0.0398   0.1166  -0.1104   0.00    0.0
2334 495769.0   45 56 52.17350  -66 37 54.54158   -20.8060   6   7   0.1217   0.1043   0.3107  -0.0388   0.1154  -0.1107   0.00    0.0
2334 495770.0   45 56 52.17406  -66 37 54.54145   -20.8341   6   7   0.1215   0.1037   0.3092  -0.0377   0.1141  -0.1111   0.00    0.0
2334 495771.0   45 56 52.17493  -66 37 54.54144   -20.8548   6   7   0.1215   0.1031   0.3079  -0.0364   0.1129  -0.1117   0.00    0.0
2334 495772.0   45 56 52.17546  -66 37 54.54121   -20.8890   6   7   0.1215   0.1026   0.3066  -0.0350   0.1115  -0.1124   0.00    0.0
2334 495773.0   45 56 52.17637  -66 37 54.54100   -20.9138   6   7   0.1216   0.1021   0.3055  -0.0334   0.1101  -0.1133   0.00    0.0
2334 495774.0   45 56 52.17720  -66 37 54.54054   -20.9375   6   7   0.1219   0.1016   0.3045  -0.0315   0.1086  -0.1145   0.00    0.0
2334 495775.0   45 56 52.17789  -66 37 54.54000   -20.9683   6   7   0.1224   0.1012   0.3037  -0.0292   0.1070  -0.1159   0.00    0.0
2334 495776.0   45 56 52.17881  -66 37 54.53992   -21.0259   6   7   0.1230   0.1009   0.3032  -0.0264   0.1052  -0.1176   0.00    0.0
2334 495777.0   45 56 52.17991  -66 37 54.53951   -21.0719   6   7   0.1239   0.1006   0.3029  -0.0228   0.1033  -0.1198   0.00    0.0
2334 495778.0   45 56 52.18083  -66 37 54.53902   -21.1277   6   7   0.1252   0.1004   0.3030  -0.0177   0.1011  -0.1224   0.00    0.0
2334 495779.0   45 56 52.18230  -66 37 54.53827   -21.1997   6   7   0.1269   0.1003   0.3036  -0.0079   0.0985  -0.1258   0.00    0.0
2334 495780.0   45 56 52.18425  -66 37 54.53752   -21.2939   6   7   0.1293   0.1004   0.3050   0.0157   0.0955  -0.1301   0.00    0.0
2334 495781.0   45 56 52.18703  -66 37 54.53631   -21.4220   6   7   0.1325   0.1007   0.3075   0.0253   0.0918  -0.1358   0.00    0.0
2334 495782.0   45 56 52.19074  -66 37 54.53427   -21.5938   6   7   0.1371   0.1016   0.3116   0.0341   0.0870  -0.1434   0.00    0.0
2334 495783.0   45 56 52.19652  -66 37 54.53146   -21.8506   6   7   0.1439   0.1033   0.3187   0.0436   0.0805  -0.1542   0.00    0.0
2334 495784.0   45 56 52.20558  -66 37 54.52710   -22.3195   6   7   0.1548   0.1074   0.3323   0.0543   0.0725  -0.1712   0.00    0.0
2334 495785.0   45 56 52.18377  -66 37 54.53971   -21.2637   6   5   0.2196   0.1238   0.4087   0.1121  -0.0976  -0.2583   0.00    0.0
2334 495786.0   45 56 52.18381  -66 37 54.53999   -21.2655   6   5   0.2179   0.1229   0.4056   0.1112  -0.0968  -0.2563   0.00    0.0
2334 495787.0   45 56 52.18421  -66 37 54.54010   -21.2884   6   7   0.2105   0.1202   0.3955   0.1057  -0.0877  -0.2469   0.00    0.0
2334 495788.0   45 56 52.16009  -66 37 54.55265   -20.1034   6   7   0.0976   0.0894   0.2629  -0.0417   0.1047  -0.0815   0.00    0.0
2334 495789.0   45 56 52.16122  -66 37 54.55194   -20.1450   6   7   0.0962   0.0885   0.2603  -0.0418   0.1041  -0.0798   0.00    0.0
2334 495790.0   45 56 52.16199  -66 37 54.55151   -20.1939   6   7   0.0950   0.0878   0.2580  -0.0418   0.1034  -0.0785   0.00    0.0
2334 495791.0   45 56 52.16251  -66 37 54.55122   -20.2182   6   7   0.0940   0.0870   0.2557  -0.0417   0.1027  -0.0773   0.00    0.0
2334 495792.0   45 56 52.16292  -66 37 54.55085   -20.2442   6   7   0.0930   0.0863   0.2535  -0.0415   0.1019  -0.0763   0.00    0.0
2334 495793.0   45 56 52.16348  -66 37 54.55061   -20.2544   6   7   0.0921   0.0856   0.2514  -0.0413   0.1011  -0.0754   0.00    0.0
2334 495794.0   45 56 52.16333  -66 37 54.55054   -20.2543   6   7   0.0912   0.0849   0.2493  -0.0411   0.1004  -0.0745   0.00    0.0
2334 495795.0   45 56 52.16330  -66 37 54.55050   -20.2683   6   7   0.0904   0.0842   0.2472  -0.0408   0.0996  -0.0737   0.00    0.0
2334 495796.0   45 56 52.16367  -66 37 54.55049   -20.2914   6   7   0.0895   0.0835   0.2451  -0.0405   0.0988  -0.0730   0.00    0.0
2334 495797.0   45 56 52.16366  -66 37 54.55034   -20.2764   6   7   0.0887   0.0828   0.2431  -0.0402   0.0979  -0.0722   0.00    0.0
2334 495798.0   45 56 52.16368  -66 37 54.55034   -20.2804   6   7   0.0879   0.0821   0.2410  -0.0399   0.0971  -0.0715   0.00    0.0
2334 495799.0   45 56 52.16355  -66 37 54.55016   -20.2667   6   7   0.0871   0.0815   0.2390  -0.0396   0.0963  -0.0708   0.00    0.0
2334 495800.0   45 56 52.16360  -66 37 54.55024   -20.2752   6   7   0.0863   0.0808   0.2369  -0.0393   0.0955  -0.0702   0.00    0.0
2334 495801.0   45 56 52.16354  -66 37 54.55015   -20.2716   6   7   0.0856   0.0801   0.2349  -0.0389   0.0947  -0.0695   0.00    0.0
2334 495802.0   45 56 52.16338  -66 37 54.55034   -20.2712   6   7   0.0848   0.0795   0.2329  -0.0386   0.0938  -0.0689   0.00    0.0
2334 495803.0   45 56 52.16325  -66 37 54.55053   -20.2724   6   7   0.0840   0.0788   0.2309  -0.0383   0.0930  -0.0682   0.00    0.0
2334 495804.0   45 56 52.16317  -66 37 54.55064   -20.2740   6   7   0.0833   0.0781   0.2289  -0.0379   0.0922  -0.0676   0.00    0.0
2334 495805.0   45 56 52.16296  -66 37 54.55065   -20.2726   6   7   0.0825   0.0775   0.2269  -0.0376   0.0913  -0.0670   0.00    0.0
2334 495806.0   45 56 52.16281  -66 37 54.55057   -20.2559   6   7   0.0818   0.0768   0.2249  -0.0373   0.0905  -0.0664   0.00    0.0
2334 495807.0   45 56 52.16265  -66 37 54.55041   -20.2434   6   7   0.0811   0.0762   0.2229  -0.0369   0.0897  -0.0658   0.00    0.0
2334 495808.0   45 56 52.16265  -66 37 54.55043   -20.2410   6   7   0.0803   0.0755   0.2209  -0.0366   0.0888  -0.0652   0.00    0.0
2334 495809.0   45 56 52.16229  -66 37 54.55022   -20.2258   6   7   0.0796   0.0749   0.2189  -0.0362   0.0880  -0.0646   0.00    0.0
2334 495810.0   45 56 52.16219  -66 37 54.55034   -20.2321   6   7   0.0788   0.0742   0.2169  -0.0359   0.0872  -0.0640   0.00    0.0
2334 495811.0   45 56 52.16191  -66 37 54.55041   -20.2195   6   7   0.0781   0.0736   0.2149  -0.0355   0.0863  -0.0634   0.00    0.0
2334 495812.0   45 56 52.16180  -66 37 54.55045   -20.2143   6   7   0.0774   0.0729   0.2129  -0.0352   0.0855  -0.0628   0.00    0.0
2334 495813.0   45 56 52.16173  -66 37 54.55036   -20.2111   6   7   0.0767   0.0723   0.2109  -0.0348   0.0846  -0.0622   0.00    0.0
2334 495814.0   45 56 52.16159  -66 37 54.55025   -20.2018   6   7   0.0759   0.0716   0.2089  -0.0344   0.0838  -0.0616   0.00    0.0
2334 495815.0   45 56 52.16146  -66 37 54.55058   -20.2154   6   7   0.0752   0.0710   0.2069  -0.0341   0.0829  -0.0611   0.00    0.0
2334 495816.0   45 56 52.16120  -66 37 54.55067   -20.2097   6   7   0.0745   0.0703   0.2049  -0.0337   0.0821  -0.0605   0.00    0.0
2334 495817.0   45 56 52.16109  -66 37 54.55056   -20.1980   6   7   0.0738   0.0697   0.2029  -0.0334   0.0812  -0.0599   0.00    0.0
2334 495818.0   45 56 52.16089  -66 37 54.55049   -20.1937   6   7   0.0731   0.0690   0.2009  -0.0330   0.0804  -0.0594   0.00    0.0
2334 495819.0   45 56 52.16068  -66 37 54.55056   -20.1881   6   7   0.0723   0.0684   0.1989  -0.0326   0.0795  -0.0588   0.00    0.0
2334 495820.0   45 56 52.16063  -66 37 54.55057   -20.1897   6   7   0.0716   0.0677   0.1970  -0.0323   0.0787  -0.0583   0.00    0.0
2334 495821.0   45 56 52.16047  -66 37 54.55056   -20.1918   6   7   0.0709   0.0671   0.1950  -0.0319   0.0778  -0.0577   0.00    0.0
2334 495822.0   45 56 52.16023  -66 37 54.55037   -20.1711   6   7   0.0702   0.0665   0.1930  -0.0315   0.0770  -0.0572   0.00    0.0
2334 495823.0   45 56 52.16005  -66 37 54.55045   -20.1658   6   7   0.0695   0.0658   0.1910  -0.0312   0.0761  -0.0566   0.00    0.0
2334 495824.0   45 56 52.16010  -66 37 54.55043   -20.1741   6   7   0.0688   0.0652   0.1890  -0.0308   0.0753  -0.0561   0.00    0.0
2334 495825.0   45 56 52.15990  -66 37 54.55044   -20.1672   6   7   0.0681   0.0645   0.1870  -0.0304   0.0744  -0.0555   0.00    0.0
2334 495826.0   45 56 52.15963  -66 37 54.55040   -20.1648   6   7   0.0674   0.0639   0.1850  -0.0301   0.0735  -0.0550   0.00    0.0
2334 495827.0   45 56 52.15955  -66 37 54.55026   -20.1604   6   7   0.0667   0.0633   0.1831  -0.0297   0.0727  -0.0545   0.00    0.0
2334 495828.0   45 56 52.15942  -66 37 54.55018   -20.1572   6   7   0.0660   0.0626   0.1811  -0.0293   0.0718  -0.0539   0.00    0.0
2334 495829.0   45 56 52.15935  -66 37 54.55022   -20.1481   6   7   0.0653   0.0620   0.1791  -0.0289   0.0709  -0.0534   0.00    0.0
2334 495830.0   45 56 52.15930  -66 37 54.55025   -20.1467   6   7   0.0646   0.0614   0.1771  -0.0286   0.0701  -0.0529   0.00    0.0
2334 495831.0   45 56 52.15907  -66 37 54.55000   -20.1296   6   7   0.0639   0.0607   0.1751  -0.0282   0.0692  -0.0524   0.00    0.0
2334 495832.0   45 56 52.15889  -66 37 54.54985   -20.1205   6   7   0.0632   0.0601   0.1731  -0.0278   0.0683  -0.0518   0.00    0.0
2334 495833.0   45 56 52.15864  -66 37 54.54987   -20.1208   6   7   0.0625   0.0595   0.1712  -0.0274   0.0675  -0.0513   0.00    0.0
2334 495834.0   45 56 52.15850  -66 37 54.54956   -20.0984   6   7   0.0618   0.0588   0.1692  -0.0271   0.0666  -0.0508   0.00    0.0
2334 495835.0   45 56 52.15831  -66 37 54.54980   -20.0958   6   7   0.0611   0.0582   0.1672  -0.0267   0.0657  -0.0503   0.00    0.0
2334 495836.0   45 56 52.15807  -66 37 54.54978   -20.0886   6   7   0.0604   0.0576   0.1652  -0.0263   0.0648  -0.0498   0.00    0.0
2334 495837.0   45 56 52.15785  -66 37 54.55000   -20.0931   6   7   0.0597   0.0569   0.1632  -0.0259   0.0640  -0.0493   0.00    0.0
2334 495838.0   45 56 52.15778  -66 37 54.54971   -20.0805   6   7   0.0590   0.0563   0.1612  -0.0255   0.0631  -0.0488   0.00    0.0
2334 495839.0   45 56 52.15778  -66 37 54.54978   -20.0792   6   7   0.0583   0.0557   0.1593  -0.0251   0.0622  -0.0483   0.00    0.0
2334 495840.0   45 56 52.15750  -66 37 54.54994   -20.0825   6   7   0.0576   0.0551   0.1573  -0.0247   0.0613  -0.0478   0.00    0.0
2334 495841.0   45 56 52.15733  -66 37 54.54989   -20.0725   6   7   0.0569   0.0545   0.1553  -0.0244   0.0604  -0.0473   0.00    0.0
2334 495842.0   45 56 52.15726  -66 37 54.54981   -20.0678   6   7   0.0563   0.0538   0.1533  -0.0240   0.0595  -0.0468   0.00    0.0
2334 495843.0   45 56 52.15708  -66 37 54.54987   -20.0684   6   7   0.0556   0.0532   0.1514  -0.0236   0.0587  -0.0463   0.00    0.0
2334 495844.0   45 56 52.15692  -66 37 54.54977   -20.0528   6   7   0.0549   0.0526   0.1494  -0.0232   0.0578  -0.0458   0.00    0.0
2334 495845.0   45 56 52.15680  -66 37 54.54968   -20.0552   6   7   0.0542   0.0520   0.1474  -0.0228   0.0569  -0.0453   0.00    0.0
2334 495846.0   45 56 52.15656  -66 37 54.54971   -20.0417   6   7   0.0535   0.0514   0.1454  -0.0224   0.0560  -0.0448   0.00    0.0
2334 495847.0   45 56 52.15641  -66 37 54.54996   -20.0459   6   7   0.0529   0.0508   0.1435  -0.0220   0.0551  -0.0444   0.00    0.0
2334 495848.0   45 56 52.15627  -66 37 54.54991   -20.0421   6   7   0.0522   0.0502   0.1415  -0.0216   0.0542  -0.0439   0.00    0.0
2334 495849.0   45 56 52.15612  -66 37 54.54996   -20.0362   6   7   0.0515   0.0496   0.1396  -0.0212   0.0533  -0.0434   0.00    0.0
2334 495850.0   45 56 52.15605  -66 37 54.54997   -20.0289   6   7   0.0509   0.0490   0.1376  -0.0207   0.0524  -0.0430   0.00    0.0
2334 495851.0   45 56 52.15599  -66 37 54.54981   -20.0264   6   7   0.0502   0.0484   0.1356  -0.0203   0.0515  -0.0425   0.00    0.0
2334 495852.0   45 56 52.15580  -66 37 54.54980   -20.0222   6   7   0.0495   0.0478   0.1337  -0.0199   0.0506  -0.0420   0.00    0.0
2334 495853.0   45 56 52.15565  -66 37 54.54980   -20.0195   6   7   0.0489   0.0472   0.1318  -0.0195   0.0497  -0.0416   0.00    0.0
2334 495854.0   45 56 52.15545  -66 37 54.54976   -20.0115   6   7   0.0482   0.0466   0.1298  -0.0191   0.0488  -0.0411   0.00    0.0
2334 495855.0   45 56 52.15524  -66 37 54.54968   -20.0032   6   7   0.0475   0.0460   0.1279  -0.0187   0.0479  -0.0407   0.00    0.0
2334 495856.0   45 56 52.15515  -66 37 54.54972   -20.0005   6   7   0.0469   0.0454   0.1260  -0.0182   0.0469  -0.0403   0.00    0.0
2334 495857.0   45 56 52.15503  -66 37 54.54982   -19.9932   6   7   0.0462   0.0448   0.1240  -0.0178   0.0460  -0.0398   0.00    0.0
2334 495858.0   45 56 52.15466  -66 37 54.54967   -19.9801   6   7   0.0456   0.0442   0.1221  -0.0174   0.0451  -0.0394   0.00    0.0
2334 495859.0   45 56 52.15462  -66 37 54.54967   -19.9713   6   7   0.0450   0.0437   0.1202  -0.0170   0.0442  -0.0390   0.00    0.0
2334 495860.0   45 56 52.15451  -66 37 54.54970   -19.9693   6   7   0.0443   0.0431   0.1183  -0.0165   0.0433  -0.0386   0.00    0.0
2334 495861.0   45 56 52.15437  -66 37 54.54995   -19.9801   6   7   0.0437   0.0425   0.1165  -0.0161   0.0424  -0.0381   0.00    0.0
2334 495862.0   45 56 52.15415  -66 37 54.54986   -19.9760   6   7   0.0431   0.0420   0.1146  -0.0156   0.0415  -0.0377   0.00    0.0
2334 495863.0   45 56 52.15405  -66 37 54.54998   -19.9754   6   7   0.0424   0.0414   0.1127  -0.0152   0.0405  -0.0373   0.00    0.0
2334 495864.0   45 56 52.15405  -66 37 54.55000   -19.9763   6   7   0.0418   0.0409   0.1109  -0.0148   0.0396  -0.0370   0.00    0.0
2334 495865.0   45 56 52.15394  -66 37 54.54999   -19.9686   6   7   0.0412   0.0403   0.1090  -0.0143   0.0387  -0.0366   0.00    0.0
2334 495866.0   45 56 52.15386  -66 37 54.54988   -19.9661   6   7   0.0406   0.0398   0.1072  -0.0139   0.0378  -0.0362   0.00    0.0
2334 495867.0   45 56 52.15374  -66 37 54.54985   -19.9613   6   7   0.0400   0.0393   0.1054  -0.0134   0.0368  -0.0358   0.00    0.0
2334 495868.0   45 56 52.15356  -66 37 54.54989   -19.9540   6   7   0.0394   0.0387   0.1036  -0.0129   0.0359  -0.0354   0.00    0.0
2334 495869.0   45 56 52.15363  -66 37 54.55000   -19.9532   6   7   0.0389   0.0382   0.1018  -0.0125   0.0350  -0.0351   0.00    0.0
2334 495870.0   45 56 52.15350  -66 37 54.55004   -19.9432   6   7   0.0383   0.0377   0.1001  -0.0120   0.0341  -0.0347   0.00    0.0
2334 495871.0   45 56 52.15352  -66 37 54.54999   -19.9402   6   7   0.0377   0.0372   0.0984  -0.0115   0.0332  -0.0344   0.00    0.0
2334 495872.0   45 56 52.15335  -66 37 54.55012   -19.9313   6   7   0.0371   0.0367   0.0967  -0.0110   0.0323  -0.0340   0.00    0.0
2334 495873.0   45 56 52.15329  -66 37 54.55031   -19.9375   6   7   0.0366   0.0362   0.0950  -0.0105   0.0313  -0.0337   0.00    0.0
2334 495874.0   45 56 52.15314  -66 37 54.55062   -19.9470   6   7   0.0361   0.0358   0.0933  -0.0100   0.0304  -0.0334   0.00    0.0
2334 495875.0   45 56 52.15304  -66 37 54.55067   -19.9404   6   8   0.0355   0.0353   0.0917  -0.0094   0.0295  -0.0331   0.00    0.0
2334 495876.0   45 56 52.15258  -66 37 54.55018   -19.9006   6   8   0.0321   0.0310   0.0732   0.0119  -0.0031  -0.0183   0.00    0.0
2334 495877.0   45 56 52.15251  -66 37 54.55021   -19.8946   6   8   0.0317   0.0308   0.0723   0.0118  -0.0043  -0.0188   0.00    0.0
2334 495878.0   45 56 52.15226  -66 37 54.55030   -19.8849   6   8   0.0313   0.0305   0.0714   0.0117  -0.0048  -0.0194   0.00    0.0
2334 495879.0   45 56 52.15225  -66 37 54.55031   -19.8867   6   8   0.0310   0.0302   0.0705   0.0117  -0.0058  -0.0198   0.00    0.0
2334 495880.0   45 56 52.15211  -66 37 54.55040   -19.8883   6   8   0.0306   0.0299   0.0696   0.0116  -0.0063  -0.0203   0.00    0.0
2334 495881.0   45 56 52.15208  -66 37 54.55062   -19.8928   6   8   0.0303   0.0298   0.0688   0.0115  -0.0068  -0.0206   0.00    0.0
2334 495882.0   45 56 52.15200  -66 37 54.55063   -19.8893   6   8   0.0299   0.0295   0.0680   0.0115  -0.0072  -0.0210   0.00    0.0
2334 495883.0   45 56 52.15206  -66 37 54.55065   -19.8896   6   8   0.0297   0.0293   0.0671   0.0114  -0.0079  -0.0213   0.00    0.0
2334 495884.0   45 56 52.15203  -66 37 54.55071   -19.8923   6   8   0.0294   0.0290   0.0664   0.0113  -0.0083  -0.0217   0.00    0.0
2334 495885.0   45 56 52.15201  -66 37 54.55070   -19.8948   6   8   0.0291   0.0288   0.0657   0.0112  -0.0086  -0.0220   0.00    0.0
2334 495886.0   45 56 52.15196  -66 37 54.55088   -19.8975   6   8   0.0288   0.0286   0.0650   0.0111  -0.0091  -0.0222   0.00    0.0
2334 495887.0   45 56 52.15194  -66 37 54.55113   -19.9111   6   8   0.0285   0.0284   0.0643   0.0113  -0.0094  -0.0224   0.00    0.0
2334 495888.0   45 56 52.15186  -66 37 54.55119   -19.9067   6   8   0.0283   0.0283   0.0637   0.0112  -0.0095  -0.0226   0.00    0.0
2334 495889.0   45 56 52.15175  -66 37 54.55126   -19.9017   6   8   0.0281   0.0281   0.0631   0.0112  -0.0100  -0.0228   0.00    0.0
2334 495890.0   45 56 52.15158  -66 37 54.55148   -19.9039   6   8   0.0279   0.0279   0.0626   0.0111  -0.0102  -0.0230   0.00    0.0
2334 495891.0   45 56 52.15155  -66 37 54.55146   -19.9028   6   8   0.0277   0.0278   0.0621   0.0111  -0.0103  -0.0233   0.00    0.0
2334 495892.0   45 56 52.15154  -66 37 54.55127   -19.8940   6   8   0.0275   0.0277   0.0617   0.0110  -0.0106  -0.0234   0.00    0.0
2334 495893.0   45 56 52.15157  -66 37 54.55129   -19.8907   6   8   0.0274   0.0276   0.0613   0.0111  -0.0110  -0.0235   0.00    0.0
2334 495894.0   45 56 52.15170  -66 37 54.55131   -19.8973   6   8   0.0273   0.0275   0.0610   0.0111  -0.0111  -0.0236   0.00    0.0
2334 495895.0   45 56 52.15157  -66 37 54.55135   -19.8922   6   8   0.0272   0.0274   0.0606   0.0111  -0.0113  -0.0236   0.00    0.0
2334 495896.0   45 56 52.15154  -66 37 54.55149   -19.8970   6   8   0.0271   0.0273   0.0605   0.0111  -0.0112  -0.0238   0.00    0.0
2334 495897.0   45 56 52.15148  -66 37 54.55145   -19.8947   6   8   0.0270   0.0272   0.0604   0.0109  -0.0112  -0.0241   0.00    0.0
2334 495898.0   45 56 52.15149  -66 37 54.55143   -19.8963   6   8   0.0270   0.0272   0.0602   0.0111  -0.0115  -0.0239   0.00    0.0
2334 495899.0   45 56 52.15164  -66 37 54.55138   -19.8957   6   8   0.0271   0.0272   0.0601   0.0112  -0.0114  -0.0242   0.00    0.0
2334 495900.0   45 56 52.15151  -66 37 54.55120   -19.8879   6   8   0.0270   0.0272   0.0602   0.0110  -0.0115  -0.0241   0.00    0.0
2334 495901.0   45 56 52.15155  -66 37 54.55125   -19.8867   6   8   0.0270   0.0273   0.0604   0.0110  -0.0116  -0.0241   0.00    0.0
2334 495902.0   45 56 52.15152  -66 37 54.55122   -19.8908   6   8   0.0271   0.0273   0.0606   0.0111  -0.0115  -0.0243   0.00    0.0
2334 495903.0   45 56 52.15152  -66 37 54.55134   -19.8977   6   8   0.0272   0.0273   0.0607   0.0112  -0.0114  -0.0243   0.00    0.0
2334 495904.0   45 56 52.15167  -66 37 54.55134   -19.9083   6   8   0.0275   0.0274   0.0609   0.0110  -0.0115  -0.0244   0.00    0.0
2334 495905.0   45 56 52.15159  -66 37 54.55120   -19.9081   6   8   0.0276   0.0274   0.0613   0.0111  -0.0115  -0.0244   0.00    0.0
2334 495906.0   45 56 52.15168  -66 37 54.55109   -19.9056   6   8   0.0277   0.0276   0.0617   0.0113  -0.0113  -0.0245   0.00    0.0
2334 495907.0   45 56 52.15170  -66 37 54.55133   -19.9215   6   8   0.0279   0.0276   0.0622   0.0114  -0.0113  -0.0245   0.00    0.0
2334 495908.0   45 56 52.15187  -66 37 54.55134   -19.9271   6   8   0.0283   0.0279   0.0628   0.0114  -0.0110  -0.0248   0.00    0.0
2334 495909.0   45 56 52.15200  -66 37 54.55142   -19.9408   6   8   0.0286   0.0280   0.0632   0.0117  -0.0111  -0.0248   0.00    0.0
2334 495910.0   45 56 52.15211  -66 37 54.55123   -19.9341   6   8   0.0292   0.0283   0.0640   0.0120  -0.0113  -0.0251   0.00    0.0
2334 495911.0   45 56 52.15234  -66 37 54.55104   -19.9472   6   8   0.0298   0.0285   0.0649   0.0126  -0.0117  -0.0257   0.00    0.0
2334 495912.0   45 56 52.15229  -66 37 54.55090   -19.9345   6   8   0.0314   0.0292   0.0662   0.0143  -0.0135  -0.0272   0.00    0.0
2334 495913.0   45 56 52.15201  -66 37 54.55105   -19.9293   6   7   0.0317   0.0294   0.0670   0.0146  -0.0134  -0.0272   0.00    0.0
2334 495914.0   45 56 52.15307  -66 37 54.55071   -19.9446   6   7   0.0321   0.0297   0.0677   0.0147  -0.0131  -0.0273   0.00    0.0
2334 495915.0   45 56 52.15334  -66 37 54.55045   -19.9426   6   7   0.0324   0.0299   0.0686   0.0149  -0.0131  -0.0273   0.00    0.0
2334 495916.0   45 56 52.15364  -66 37 54.55017   -19.9374   6   7   0.0329   0.0301   0.0694   0.0150  -0.0128  -0.0273   0.00    0.0
2334 495917.0   45 56 52.15376  -66 37 54.55014   -19.9545   6   7   0.0332   0.0304   0.0703   0.0152  -0.0126  -0.0273   0.00    0.0
2334 495918.0   45 56 52.15336  -66 37 54.54971   -19.9639   6   7   0.0337   0.0307   0.0713   0.0154  -0.0123  -0.0273   0.00    0.0
2334 495919.0   45 56 52.15327  -66 37 54.54966   -19.9514   6   8   0.0341   0.0310   0.0722   0.0156  -0.0121  -0.0273   0.00    0.0
2334 495920.0   45 56 52.15224  -66 37 54.55002   -19.9017   6   8   0.0313   0.0301   0.0715   0.0108   0.0016  -0.0226   0.00    0.0
2334 495921.0   45 56 52.15227  -66 37 54.54977   -19.8923   6   8   0.0316   0.0304   0.0725   0.0108   0.0042  -0.0224   0.00    0.0
2334 495922.0   45 56 52.15238  -66 37 54.54993   -19.8969   6   8   0.0320   0.0306   0.0737   0.0107   0.0059  -0.0223   0.00    0.0
2334 495923.0   45 56 52.15243  -66 37 54.54985   -19.9029   6   8   0.0324   0.0310   0.0749   0.0107   0.0073  -0.0221   0.00    0.0
2334 495924.0   45 56 52.15253  -66 37 54.54995   -19.9109   6   8   0.0329   0.0313   0.0761   0.0106   0.0088  -0.0221   0.00    0.0
2334 495925.0   45 56 52.15265  -66 37 54.54998   -19.9189   6   8   0.0333   0.0316   0.0775   0.0105   0.0101  -0.0220   0.00    0.0
2334 495926.0   45 56 52.15276  -66 37 54.54972   -19.9242   6   8   0.0338   0.0321   0.0789   0.0103   0.0114  -0.0221   0.00    0.0
2334 495927.0   45 56 52.15257  -66 37 54.54947   -19.9075   6   8   0.0343   0.0324   0.0805   0.0101   0.0131  -0.0223   0.00    0.0
2334 495928.0   45 56 52.15270  -66 37 54.54910   -19.8927   6   8   0.0349   0.0329   0.0824   0.0095   0.0149  -0.0227   0.00    0.0
2334 495929.0   45 56 52.15263  -66 37 54.54880   -19.8868   6   8   0.0355   0.0335   0.0846   0.0088   0.0171  -0.0235   0.00    0.0
2334 495930.0   45 56 52.15282  -66 37 54.54876   -19.9026   6   8   0.0362   0.0343   0.0877   0.0073   0.0202  -0.0250   0.00    0.0
2334 495931.0   45 56 52.15284  -66 37 54.54867   -19.9024   6   8   0.0372   0.0354   0.0924   0.0016   0.0250  -0.0280   0.00    0.0
2334 495932.0   45 56 52.15279  -66 37 54.54850   -19.8904   6   8   0.0394   0.0381   0.1035  -0.0122   0.0350  -0.0357   0.00    0.0
2334 495933.0   45 56 52.15317  -66 37 54.54841   -19.9009   6   7   0.0400   0.0387   0.1054  -0.0129   0.0361  -0.0363   0.00    0.0
2334 495934.0   45 56 52.15298  -66 37 54.54820   -19.8921   6   7   0.0406   0.0392   0.1072  -0.0133   0.0370  -0.0366   0.00    0.0
2334 495935.0   45 56 52.15333  -66 37 54.54817   -19.8937   6   7   0.0411   0.0397   0.1090  -0.0138   0.0379  -0.0370   0.00    0.0
2334 495936.0   45 56 52.15317  -66 37 54.54787   -19.8830   6   7   0.0417   0.0402   0.1108  -0.0142   0.0388  -0.0373   0.00    0.0
2334 495937.0   45 56 52.15324  -66 37 54.54788   -19.8829   6   7   0.0422   0.0407   0.1125  -0.0146   0.0397  -0.0377   0.00    0.0
2334 495938.0   45 56 52.15333  -66 37 54.54773   -19.8836   6   7   0.0428   0.0412   0.1144  -0.0150   0.0406  -0.0381   0.00    0.0
2334 495939.0   45 56 52.15338  -66 37 54.54772   -19.8917   6   7   0.0434   0.0417   0.1162  -0.0155   0.0415  -0.0384   0.00    0.0
2334 495940.0   45 56 52.15353  -66 37 54.54743   -19.8756   6   7   0.0440   0.0423   0.1180  -0.0159   0.0423  -0.0388   0.00    0.0
2334 495941.0   45 56 52.15358  -66 37 54.54719   -19.8646   6   7   0.0445   0.0428   0.1198  -0.0163   0.0432  -0.0392   0.00    0.0
2334 495942.0   45 56 52.15354  -66 37 54.54749   -19.8774   6   7   0.0451   0.0433   0.1216  -0.0167   0.0441  -0.0396   0.00    0.0
2334 495943.0   45 56 52.15385  -66 37 54.54716   -19.8759   6   7   0.0457   0.0438   0.1234  -0.0171   0.0450  -0.0400   0.00    0.0
2334 495944.0   45 56 52.15405  -66 37 54.54698   -19.8635   6   7   0.0463   0.0443   0.1253  -0.0175   0.0458  -0.0403   0.00    0.0
2334 495945.0   45 56 52.15416  -66 37 54.54690   -19.8630   6   7   0.0468   0.0449   0.1271  -0.0179   0.0467  -0.0407   0.00    0.0
2334 495946.0   45 56 52.15419  -66 37 54.54671   -19.8591   6   7   0.0474   0.0454   0.1289  -0.0183   0.0475  -0.0411   0.00    0.0
2334 495947.0   45 56 52.15419  -66 37 54.54652   -19.8499   6   7   0.0480   0.0459   0.1308  -0.0186   0.0484  -0.0415   0.00    0.0
2334 495948.0   45 56 52.15437  -66 37 54.54651   -19.8594   6   7   0.0486   0.0465   0.1326  -0.0190   0.0492  -0.0419   0.00    0.0
2334 495949.0   45 56 52.15441  -66 37 54.54672   -19.8776   6   7   0.0492   0.0470   0.1344  -0.0194   0.0501  -0.0423   0.00    0.0
2334 495950.0   45 56 52.15464  -66 37 54.54645   -19.8742   6   7   0.0498   0.0475   0.1363  -0.0198   0.0509  -0.0427   0.00    0.0
2334 495951.0   45 56 52.15468  -66 37 54.54649   -19.8695   6   7   0.0503   0.0481   0.1381  -0.0202   0.0518  -0.0431   0.00    0.0
2334 495952.0   45 56 52.15458  -66 37 54.54616   -19.8648   6   7   0.0509   0.0486   0.1399  -0.0205   0.0526  -0.0434   0.00    0.0
2334 495953.0   45 56 52.15466  -66 37 54.54589   -19.8617   6   7   0.0515   0.0491   0.1418  -0.0209   0.0535  -0.0438   0.00    0.0
2334 495954.0   45 56 52.15498  -66 37 54.54570   -19.8741   6   7   0.0521   0.0497   0.1436  -0.0213   0.0543  -0.0442   0.00    0.0
2334 495955.0   45 56 52.15515  -66 37 54.54562   -19.8789   6   7   0.0527   0.0502   0.1454  -0.0216   0.0551  -0.0446   0.00    0.0
2334 495956.0   45 56 52.15514  -66 37 54.54547   -19.8808   6   7   0.0532   0.0508   0.1472  -0.0220   0.0559  -0.0450   0.00    0.0
2334 495957.0   45 56 52.15507  -66 37 54.54518   -19.8651   6   7   0.0538   0.0513   0.1491  -0.0223   0.0567  -0.0454   0.00    0.0
2334 495958.0   45 56 52.15516  -66 37 54.54504   -19.8607   6   7   0.0544   0.0518   0.1509  -0.0227   0.0576  -0.0458   0.00    0.0
2334 495959.0   45 56 52.15529  -66 37 54.54488   -19.8631   6   7   0.0550   0.0524   0.1527  -0.0231   0.0584  -0.0462   0.00    0.0
2334 495960.0   45 56 52.15552  -66 37 54.54476   -19.8643   6   7   0.0556   0.0529   0.1545  -0.0234   0.0592  -0.0466   0.00    0.0
2334 495961.0   45 56 52.15549  -66 37 54.54470   -19.8680   6   7   0.0561   0.0535   0.1563  -0.0238   0.0600  -0.0470   0.00    0.0
2334 495962.0   45 56 52.15548  -66 37 54.54441   -19.8656   6   7   0.0567   0.0540   0.1581  -0.0241   0.0608  -0.0474   0.00    0.0
2334 495963.0   45 56 52.15553  -66 37 54.54432   -19.8750   6   7   0.0573   0.0546   0.1599  -0.0245   0.0616  -0.0478   0.00    0.0
2334 495964.0   45 56 52.15568  -66 37 54.54423   -19.8664   6   7   0.0579   0.0551   0.1617  -0.0248   0.0624  -0.0482   0.00    0.0
2334 495965.0   45 56 52.15577  -66 37 54.54412   -19.8730   6   7   0.0584   0.0556   0.1635  -0.0251   0.0632  -0.0486   0.00    0.0
2334 495966.0   45 56 52.15591  -66 37 54.54422   -19.8841   6   7   0.0590   0.0562   0.1653  -0.0255   0.0640  -0.0490   0.00    0.0
2334 495967.0   45 56 52.15600  -66 37 54.54393   -19.8773   6   7   0.0596   0.0567   0.1671  -0.0258   0.0648  -0.0494   0.00    0.0
2334 495968.0   45 56 52.15610  -66 37 54.54382   -19.8793   6   7   0.0601   0.0573   0.1689  -0.0262   0.0656  -0.0498   0.00    0.0
2334 495969.0   45 56 52.15635  -66 37 54.54384   -19.8826   6   7   0.0607   0.0578   0.1707  -0.0265   0.0663  -0.0502   0.00    0.0
2334 495970.0   45 56 52.15638  -66 37 54.54369   -19.8856   6   7   0.0613   0.0584   0.1724  -0.0268   0.0671  -0.0506   0.00    0.0
2334 495971.0   45 56 52.15656  -66 37 54.54410   -19.8992   6   8   0.0618   0.0589   0.1742  -0.0271   0.0679  -0.0509   0.00    0.0
2334 495972.0   45 56 52.15685  -66 37 54.54410   -19.9192   6   8   0.0547   0.0482   0.1312   0.0170   0.0255   0.0296   0.00    0.0
2334 495973.0   45 56 52.15694  -66 37 54.54408   -19.9311   6   8   0.0552   0.0485   0.1324   0.0173   0.0257   0.0303   0.00    0.0
2334 495974.0   45 56 52.15688  -66 37 54.54401   -19.9297   6   8   0.0556   0.0488   0.1336   0.0175   0.0259   0.0309   0.00    0.0
2334 495975.0   45 56 52.15680  -66 37 54.54378   -19.9298   6   8   0.0561   0.0492   0.1348   0.0177   0.0262   0.0315   0.00    0.0
2334 495976.0   45 56 52.15690  -66 37 54.54369   -19.9273   6   8   0.0565   0.0496   0.1360   0.0178   0.0265   0.0321   0.00    0.0
2334 495977.0   45 56 52.15701  -66 37 54.54382   -19.9456   6   8   0.0570   0.0499   0.1372   0.0180   0.0268   0.0327   0.00    0.0
2334 495978.0   45 56 52.15702  -66 37 54.54368   -19.9500   6   8   0.0575   0.0503   0.1384   0.0182   0.0272   0.0332   0.00    0.0
2334 495979.0   45 56 52.15710  -66 37 54.54366   -19.9520   6   8   0.0579   0.0507   0.1397   0.0183   0.0275   0.0338   0.00    0.0
2334 495980.0   45 56 52.15737  -66 37 54.54368   -19.9634   6   8   0.0584   0.0511   0.1409   0.0185   0.0278   0.0343   0.00    0.0
2334 495981.0   45 56 52.15751  -66 37 54.54352   -19.9626   6   8   0.0589   0.0515   0.1421   0.0186   0.0281   0.0349   0.00    0.0
2334 495982.0   45 56 52.15743  -66 37 54.54316   -19.9541   6   8   0.0593   0.0518   0.1433   0.0188   0.0285   0.0354   0.00    0.0
2334 495983.0   45 56 52.15715  -66 37 54.54257   -19.9313   6   8   0.0598   0.0522   0.1445   0.0189   0.0288   0.0359   0.00    0.0
2334 495984.0   45 56 52.15688  -66 37 54.54184   -19.9016   6   8   0.0603   0.0526   0.1458   0.0191   0.0291   0.0365   0.00    0.0
2334 495985.0   45 56 52.15709  -66 37 54.54205   -19.9197   6   8   0.0607   0.0530   0.1470   0.0192   0.0294   0.0370   0.00    0.0
2334 495986.0   45 56 52.15698  -66 37 54.54194   -19.9186   6   8   0.0612   0.0534   0.1482   0.0194   0.0298   0.0375   0.00    0.0
2334 495987.0   45 56 52.15686  -66 37 54.54166   -19.9069   6   8   0.0617   0.0537   0.1494   0.0195   0.0301   0.0380   0.00    0.0
2334 495988.0   45 56 52.15738  -66 37 54.54201   -19.9528   6   8   0.0621   0.0541   0.1506   0.0197   0.0304   0.0385   0.00    0.0
2334 495989.0   45 56 52.15751  -66 37 54.54207   -19.9623   6   8   0.0626   0.0545   0.1518   0.0198   0.0307   0.0390   0.00    0.0
2334 495990.0   45 56 52.15756  -66 37 54.54185   -19.9661   6   8   0.0631   0.0549   0.1530   0.0200   0.0310   0.0395   0.00    0.0
2334 495991.0   45 56 52.15764  -66 37 54.54199   -19.9790   6   8   0.0635   0.0553   0.1542   0.0201   0.0314   0.0401   0.00    0.0
2334 495992.0   45 56 52.15767  -66 37 54.54178   -19.9812   6   8   0.0640   0.0557   0.1555   0.0203   0.0317   0.0406   0.00    0.0
2334 495993.0   45 56 52.15772  -66 37 54.54160   -19.9881   6   8   0.0645   0.0560   0.1567   0.0204   0.0320   0.0411   0.00    0.0
2334 495994.0   45 56 52.15778  -66 37 54.54162   -20.0020   6   8   0.0650   0.0564   0.1579   0.0206   0.0323   0.0416   0.00    0.0
2334 495995.0   45 56 52.15814  -66 37 54.54189   -20.0359   6   8   0.0654   0.0568   0.1591   0.0207   0.0326   0.0421   0.00    0.0
2334 495996.0   45 56 52.15816  -66 37 54.54156   -20.0377   6   8   0.0659   0.0572   0.1603   0.0209   0.0329   0.0426   0.00    0.0
2334 495997.0   45 56 52.15799  -66 37 54.54112   -20.0210   6   8   0.0664   0.0576   0.1615   0.0210   0.0332   0.0431   0.00    0.0
2334 495998.0   45 56 52.15801  -66 37 54.54085   -20.0152   6   8   0.0668   0.0580   0.1627   0.0212   0.0336   0.0435   0.00    0.0
2334 495999.0   45 56 52.15771  -66 37 54.54022   -19.9918   6   8   0.0673   0.0584   0.1639   0.0213   0.0339   0.0440   0.00    0.0
2334 496000.0   45 56 52.15783  -66 37 54.54009   -19.9964   6   8   0.0678   0.0587   0.1651   0.0215   0.0342   0.0445   0.00    0.0
2334 496001.0   45 56 52.15811  -66 37 54.54028   -20.0111   6   8   0.0682   0.0591   0.1663   0.0216   0.0345   0.0450   0.00    0.0
2334 496002.0   45 56 52.15831  -66 37 54.54017   -20.0251   6   8   0.0687   0.0595   0.1675   0.0218   0.0348   0.0455   0.00    0.0
2334 496003.0   45 56 52.15825  -66 37 54.54018   -20.0302   6   8   0.0692   0.0599   0.1687   0.0219   0.0351   0.0460   0.00    0.0
2334 496004.0   45 56 52.15845  -66 37 54.54010   -20.0412   6   8   0.0696   0.0603   0.1699   0.0221   0.0354   0.0465   0.00    0.0
2334 496005.0   45 56 52.15832  -66 37 54.53990   -20.0381   6   8   0.0701   0.0607   0.1710   0.0223   0.0357   0.0470   0.00    0.0
2334 496006.0   45 56 52.15852  -66 37 54.54001   -20.0595   6   8   0.0706   0.0611   0.1722   0.0224   0.0360   0.0475   0.00    0.0
2334 496007.0   45 56 52.15873  -66 37 54.54001   -20.0767   6   8   0.0711   0.0614   0.1734   0.0226   0.0363   0.0480   0.00    0.0
2334 496008.0   45 56 52.15863  -66 37 54.53998   -20.0791   6   8   0.0715   0.0618   0.1746   0.0227   0.0366   0.0485   0.00    0.0
2334 496009.0   45 56 52.15865  -66 37 54.53963   -20.0751   6   8   0.0720   0.0622   0.1758   0.0229   0.0369   0.0489   0.00    0.0
2334 496010.0   45 56 52.15870  -66 37 54.53935   -20.0693   6   8   0.0725   0.0626   0.1770   0.0230   0.0372   0.0494   0.00    0.0
2334 496011.0   45 56 52.15867  -66 37 54.53935   -20.0695   6   8   0.0729   0.0630   0.1782   0.0232   0.0375   0.0499   0.00    0.0
2334 496012.0   45 56 52.15851  -66 37 54.53913   -20.0431   6   8   0.0734   0.0634   0.1794   0.0233   0.0378   0.0504   0.00    0.0
2334 496013.0   45 56 52.15857  -66 37 54.53904   -20.0415   6   8   0.0739   0.0638   0.1805   0.0235   0.0380   0.0509   0.00    0.0
2334 496014.0   45 56 52.15873  -66 37 54.53927   -20.0584   6   8   0.0744   0.0642   0.1817   0.0237   0.0383   0.0514   0.00    0.0
2334 496015.0   45 56 52.15903  -66 37 54.53976   -20.1033   6   8   0.0748   0.0645   0.1829   0.0238   0.0386   0.0519   0.00    0.0
2334 496016.0   45 56 52.15890  -66 37 54.53952   -20.0983   6   8   0.0753   0.0649   0.1841   0.0240   0.0389   0.0524   0.00    0.0
2334 496017.0   45 56 52.15891  -66 37 54.53966   -20.1116   6   8   0.0758   0.0653   0.1853   0.0241   0.0392   0.0529   0.00    0.0
2334 496018.0   45 56 52.15883  -66 37 54.53961   -20.1044   6   8   0.0763   0.0657   0.1864   0.0243   0.0395   0.0533   0.00    0.0
2334 496019.0   45 56 52.15876  -66 37 54.53934   -20.0994   6   8   0.0767   0.0661   0.1876   0.0245   0.0398   0.0538   0.00    0.0
2334 496020.0   45 56 52.15871  -66 37 54.53920   -20.1014   6   8   0.0772   0.0665   0.1888   0.0246   0.0400   0.0543   0.00    0.0
2334 496021.0   45 56 52.15885  -66 37 54.53922   -20.1100   6   8   0.0777   0.0669   0.1900   0.0248   0.0403   0.0548   0.00    0.0
2334 496022.0   45 56 52.15858  -66 37 54.53919   -20.1057   6   8   0.0782   0.0673   0.1911   0.0250   0.0406   0.0553   0.00    0.0
2334 496023.0   45 56 52.15890  -66 37 54.53969   -20.1537   6   8   0.0786   0.0677   0.1923   0.0251   0.0409   0.0558   0.00    0.0
2334 496024.0   45 56 52.15877  -66 37 54.53956   -20.1487   6   8   0.0791   0.0681   0.1935   0.0253   0.0412   0.0563   0.00    0.0
2334 496025.0   45 56 52.15873  -66 37 54.53938   -20.1353   6   8   0.0796   0.0684   0.1946   0.0254   0.0414   0.0568   0.00    0.0
2334 496026.0   45 56 52.15866  -66 37 54.53951   -20.1357   6   8   0.0801   0.0688   0.1958   0.0256   0.0417   0.0573   0.00    0.0
2334 496027.0   45 56 52.15880  -66 37 54.53967   -20.1519   6   8   0.0805   0.0692   0.1970   0.0258   0.0420   0.0578   0.00    0.0
2334 496028.0   45 56 52.15870  -66 37 54.53966   -20.1402   6   8   0.0810   0.0696   0.1981   0.0259   0.0423   0.0583   0.00    0.0
2334 496029.0   45 56 52.15866  -66 37 54.53954   -20.1397   6   8   0.0815   0.0700   0.1993   0.0261   0.0425   0.0588   0.00    0.0
2334 496030.0   45 56 52.15871  -66 37 54.53947   -20.1489   6   8   0.0820   0.0704   0.2005   0.0263   0.0428   0.0592   0.00    0.0
2334 496031.0   45 56 52.15874  -66 37 54.53928   -20.1585   6   8   0.0824   0.0708   0.2016   0.0264   0.0431   0.0597   0.00    0.0
2334 496032.0   45 56 52.15879  -66 37 54.53928   -20.1689   6   8   0.0829   0.0712   0.2028   0.0266   0.0434   0.0602   0.00    0.0
2334 496033.0   45 56 52.15873  -66 37 54.53957   -20.1851   6   8   0.0834   0.0716   0.2040   0.0268   0.0436   0.0607   0.00    0.0
2334 496034.0   45 56 52.15864  -66 37 54.53945   -20.1795   6   8   0.0839   0.0720   0.2051   0.0269   0.0439   0.0612   0.00    0.0
2334 496035.0   45 56 52.15870  -66 37 54.53957   -20.1891   6   8   0.0844   0.0724   0.2063   0.0271   0.0442   0.0617   0.00    0.0
2334 496036.0   45 56 52.15858  -66 37 54.53942   -20.1822   6   8   0.0848   0.0728   0.2074   0.0273   0.0444   0.0622   0.00    0.0
2334 496037.0   45 56 52.15833  -66 37 54.53941   -20.1877   6   8   0.0853   0.0732   0.2086   0.0274   0.0447   0.0627   0.00    0.0
2334 496038.0   45 56 52.15839  -66 37 54.53948   -20.1869   6   8   0.0858   0.0736   0.2098   0.0276   0.0450   0.0632   0.00    0.0
2334 496039.0   45 56 52.15856  -66 37 54.53977   -20.2031   6   8   0.0863   0.0739   0.2109   0.0278   0.0452   0.0637   0.00    0.0
2334 496040.0   45 56 52.15850  -66 37 54.53961   -20.1924   6   8   0.0868   0.0743   0.2121   0.0279   0.0455   0.0642   0.00    0.0
2334 496041.0   45 56 52.15826  -66 37 54.53970   -20.2053   6   8   0.0873   0.0747   0.2132   0.0281   0.0457   0.0647   0.00    0.0
2334 496042.0   45 56 52.15840  -66 37 54.53969   -20.2058   6   8   0.0877   0.0751   0.2144   0.0283   0.0460   0.0652   0.00    0.0
2334 496043.0   45 56 52.15836  -66 37 54.53962   -20.2043   6   8   0.0882   0.0755   0.2155   0.0285   0.0463   0.0657   0.00    0.0
2334 496044.0   45 56 52.15852  -66 37 54.53997   -20.2165   6   8   0.0887   0.0759   0.2167   0.0286   0.0465   0.0662   0.00    0.0
2334 496045.0   45 56 52.15850  -66 37 54.54005   -20.2234   6   8   0.0892   0.0763   0.2178   0.0288   0.0468   0.0667   0.00    0.0
2334 496046.0   45 56 52.15857  -66 37 54.53996   -20.2154   6   8   0.0897   0.0767   0.2190   0.0290   0.0470   0.0672   0.00    0.0
2334 496047.0   45 56 52.15872  -66 37 54.54017   -20.2366   6   8   0.0902   0.0771   0.2201   0.0292   0.0473   0.0677   0.00    0.0
2334 496048.0   45 56 52.15874  -66 37 54.53995   -20.2296   6   8   0.0906   0.0775   0.2213   0.0293   0.0476   0.0682   0.00    0.0
2334 496049.0   45 56 52.15881  -66 37 54.53979   -20.2307   6   8   0.0911   0.0779   0.2224   0.0295   0.0478   0.0688   0.00    0.0
2334 496050.0   45 56 52.15883  -66 37 54.53990   -20.2213   6   8   0.0916   0.0783   0.2236   0.0297   0.0481   0.0693   0.00    0.0
2334 496051.0   45 56 52.15871  -66 37 54.54007   -20.2182   6   8   0.0921   0.0787   0.2247   0.0299   0.0483   0.0698   0.00    0.0
2334 496052.0   45 56 52.15883  -66 37 54.54036   -20.2197   6   8   0.0926   0.0791   0.2259   0.0300   0.0486   0.0703   0.00    0.0
2334 496053.0   45 56 52.15894  -66 37 54.54069   -20.2276   6   8   0.0931   0.0795   0.2270   0.0302   0.0488   0.0708   0.00    0.0
2334 496054.0   45 56 52.15913  -66 37 54.54073   -20.2358   6   8   0.0936   0.0799   0.2282   0.0304   0.0491   0.0713   0.00    0.0
2334 496055.0   45 56 52.15930  -66 37 54.54062   -20.2359   6   8   0.0940   0.0803   0.2293   0.0306   0.0493   0.0718   0.00    0.0
2334 496056.0   45 56 52.15936  -66 37 54.54033   -20.2291   6   8   0.0945   0.0807   0.2304   0.0307   0.0496   0.0723   0.00    0.0
2334 496057.0   45 56 52.15932  -66 37 54.54057   -20.2397   6   8   0.0950   0.0811   0.2316   0.0309   0.0498   0.0728   0.00    0.0
2334 496058.0   45 56 52.15901  -66 37 54.54032   -20.2232   6   8   0.0955   0.0815   0.2327   0.0311   0.0501   0.0733   0.00    0.0
2334 496059.0   45 56 52.15919  -66 37 54.54041   -20.2256   6   8   0.0960   0.0819   0.2339   0.0313   0.0503   0.0738   0.00    0.0
2334 496060.0   45 56 52.15915  -66 37 54.54051   -20.2347   6   8   0.0965   0.0823   0.2350   0.0314   0.0506   0.0744   0.00    0.0
2334 496061.0   45 56 52.15916  -66 37 54.54059   -20.2377   6   8   0.0970   0.0827   0.2361   0.0316   0.0508   0.0749   0.00    0.0
2334 496062.0   45 56 52.15914  -66 37 54.54063   -20.2459   6   8   0.0975   0.0831   0.2373   0.0318   0.0511   0.0754   0.00    0.0
2334 496063.0   45 56 52.15928  -66 37 54.54062   -20.2451   6   8   0.0980   0.0835   0.2384   0.0320   0.0513   0.0759   0.00    0.0
2334 496064.0   45 56 52.15915  -66 37 54.54056   -20.2522   6   8   0.0984   0.0839   0.2396   0.0322   0.0516   0.0764   0.00    0.0
2334 496065.0   45 56 52.15917  -66 37 54.54062   -20.2438   6   8   0.0989   0.0843   0.2407   0.0323   0.0518   0.0769   0.00    0.0
2334 496066.0   45 56 52.15910  -66 37 54.54063   -20.2472   6   8   0.0994   0.0847   0.2418   0.0325   0.0521   0.0774   0.00    0.0
2334 496067.0   45 56 52.15906  -66 37 54.54071   -20.2479   6   8   0.0999   0.0851   0.2430   0.0327   0.0523   0.0780   0.00    0.0
2334 496068.0   45 56 52.15929  -66 37 54.54063   -20.2422   6   8   0.1004   0.0855   0.2441   0.0329   0.0525   0.0785   0.00    0.0
2334 496069.0   45 56 52.15945  -66 37 54.54054   -20.2370   6   8   0.1009   0.0859   0.2452   0.0331   0.0528   0.0790   0.00    0.0
2334 496070.0   45 56 52.15955  -66 37 54.54048   -20.2369   6   8   0.1014   0.0863   0.2464   0.0332   0.0530   0.0795   0.00    0.0
2334 496071.0   45 56 52.15955  -66 37 54.54038   -20.2326   6   8   0.1019   0.0867   0.2475   0.0334   0.0533   0.0800   0.00    0.0
2334 496072.0   45 56 52.15958  -66 37 54.54028   -20.2285   6   8   0.1024   0.0871   0.2486   0.0336   0.0535   0.0805   0.00    0.0
2334 496073.0   45 56 52.15966  -66 37 54.54029   -20.2271   6   8   0.1029   0.0875   0.2498   0.0338   0.0538   0.0811   0.00    0.0
2334 496074.0   45 56 52.15969  -66 37 54.54039   -20.2462   6   8   0.1034   0.0879   0.2509   0.0340   0.0540   0.0816   0.00    0.0
2334 496075.0   45 56 52.15974  -66 37 54.54048   -20.2466   6   8   0.1039   0.0883   0.2520   0.0341   0.0542   0.0821   0.00    0.0
2334 496076.0   45 56 52.15980  -66 37 54.54066   -20.2717   6   8   0.1044   0.0887   0.2532   0.0343   0.0545   0.0826   0.00    0.0
2334 496077.0   45 56 52.15983  -66 37 54.54066   -20.2640   6   8   0.1049   0.0892   0.2543   0.0345   0.0547   0.0831   0.00    0.0
2334 496078.0   45 56 52.15978  -66 37 54.54037   -20.2595   6   8   0.1053   0.0896   0.2554   0.0347   0.0550   0.0837   0.00    0.0
2334 496079.0   45 56 52.15977  -66 37 54.54001   -20.2392   6   8   0.1058   0.0900   0.2566   0.0349   0.0552   0.0842   0.00    0.0
2334 496080.0   45 56 52.16011  -66 37 54.54009   -20.2456   6   8   0.1063   0.0904   0.2577   0.0351   0.0554   0.0847   0.00    0.0
2334 496081.0   45 56 52.15979  -66 37 54.53958   -20.2086   6   8   0.1068   0.0908   0.2588   0.0352   0.0557   0.0852   0.00    0.0
2334 496082.0   45 56 52.15994  -66 37 54.53952   -20.2000   6   8   0.1073   0.0912   0.2599   0.0354   0.0559   0.0857   0.00    0.0
2334 496083.0   45 56 52.15995  -66 37 54.53942   -20.1793   6   8   0.1078   0.0916   0.2611   0.0356   0.0562   0.0863   0.00    0.0
2334 496084.0   45 56 52.16005  -66 37 54.53936   -20.1835   6   8   0.1083   0.0920   0.2622   0.0358   0.0564   0.0868   0.00    0.0
2334 496085.0   45 56 52.16026  -66 37 54.53950   -20.1956   6   8   0.1088   0.0924   0.2633   0.0360   0.0566   0.0873   0.00    0.0
2334 496086.0   45 56 52.16034  -66 37 54.53925   -20.1997   6   8   0.1093   0.0928   0.2645   0.0362   0.0569   0.0878   0.00    0.0
2334 496087.0   45 56 52.16044  -66 37 54.53920   -20.2107   6   8   0.1098   0.0932   0.2656   0.0363   0.0571   0.0884   0.00    0.0
2334 496088.0   45 56 52.16059  -66 37 54.53939   -20.1975   6   8   0.1103   0.0936   0.2667   0.0365   0.0573   0.0889   0.00    0.0
2334 496089.0   45 56 52.16073  -66 37 54.53924   -20.2147   6   8   0.1108   0.0940   0.2678   0.0367   0.0576   0.0894   0.00    0.0
2334 496090.0   45 56 52.16082  -66 37 54.53940   -20.2262   6   8   0.1113   0.0944   0.2690   0.0369   0.0578   0.0899   0.00    0.0
2334 496091.0   45 56 52.16043  -66 37 54.53910   -20.2076   6   8   0.1118   0.0949   0.2701   0.0371   0.0581   0.0905   0.00    0.0
2334 496092.0   45 56 52.16068  -66 37 54.53928   -20.2326   6   8   0.1123   0.0953   0.2712   0.0373   0.0583   0.0910   0.00    0.0
2334 496093.0   45 56 52.16061  -66 37 54.53920   -20.2247   6   8   0.1128   0.0957   0.2723   0.0375   0.0585   0.0915   0.00    0.0
2334 496094.0   45 56 52.16009  -66 37 54.53884   -20.2084   6   8   0.1133   0.0961   0.2735   0.0376   0.0588   0.0920   0.00    0.0
2334 496095.0   45 56 52.15983  -66 37 54.53899   -20.1957   6   8   0.1138   0.0965   0.2746   0.0378   0.0590   0.0926   0.00    0.0
2334 496096.0   45 56 52.15978  -66 37 54.53951   -20.2273   6   8   0.1143   0.0969   0.2757   0.0380   0.0592   0.0931   0.00    0.0
2334 496097.0   45 56 52.15979  -66 37 54.53883   -20.2094   6   8   0.1148   0.0973   0.2768   0.0382   0.0595   0.0936   0.00    0.0
2334 496098.0   45 56 52.15991  -66 37 54.53864   -20.2005   6   8   0.1153   0.0977   0.2780   0.0384   0.0597   0.0941   0.00    0.0
2334 496099.0   45 56 52.16003  -66 37 54.53852   -20.1806   6   8   0.1158   0.0981   0.2791   0.0386   0.0599   0.0947   0.00    0.0
2334 496100.0   45 56 52.16009  -66 37 54.53849   -20.1600   6   8   0.1163   0.0986   0.2802   0.0388   0.0602   0.0952   0.00    0.0
2334 496101.0   45 56 52.16035  -66 37 54.53831   -20.1693   6   8   0.1168   0.0990   0.2813   0.0390   0.0604   0.0957   0.00    0.0
2334 496102.0   45 56 52.16004  -66 37 54.53821   -20.1628   6   8   0.1173   0.0994   0.2824   0.0391   0.0606   0.0963   0.00    0.0
2334 496103.0   45 56 52.16009  -66 37 54.53828   -20.1791   6   8   0.1178   0.0998   0.2836   0.0393   0.0609   0.0968   0.00    0.0
2334 496104.0   45 56 52.15992  -66 37 54.53843   -20.1960   6   8   0.1183   0.1002   0.2847   0.0395   0.0611   0.0973   0.00    0.0
2334 496105.0   45 56 52.15970  -66 37 54.53857   -20.1982   6   8   0.1188   0.1006   0.2858   0.0397   0.0614   0.0978   0.00    0.0
2334 496106.0   45 56 52.15986  -66 37 54.53866   -20.2039   6   8   0.1193   0.1010   0.2869   0.0399   0.0616   0.0984   0.00    0.0
2334 496107.0   45 56 52.16001  -66 37 54.53912   -20.2164   6   8   0.1198   0.1014   0.2880   0.0401   0.0618   0.0989   0.00    0.0
2334 496108.0   45 56 52.15986  -66 37 54.53910   -20.2205   6   8   0.1203   0.1019   0.2892   0.0403   0.0621   0.0994   0.00    0.0
2334 496109.0   45 56 52.15978  -66 37 54.53916   -20.2138   6   8   0.1208   0.1023   0.2903   0.0405   0.0623   0.1000   0.00    0.0
2334 496110.0   45 56 52.15973  -66 37 54.53905   -20.2021   6   8   0.1214   0.1027   0.2914   0.0406   0.0625   0.1005   0.00    0.0
2334 496111.0   45 56 52.15986  -66 37 54.53904   -20.2017   6   8   0.1219   0.1031   0.2925   0.0408   0.0628   0.1010   0.00    0.0
2334 496112.0   45 56 52.15985  -66 37 54.53882   -20.1989   6   8   0.1224   0.1035   0.2937   0.0410   0.0630   0.1015   0.00    0.0
2334 496113.0   45 56 52.15958  -66 37 54.53851   -20.1910   6   8   0.1229   0.1039   0.2948   0.0412   0.0632   0.1021   0.00    0.0
2334 496114.0   45 56 52.15962  -66 37 54.53859   -20.1971   6   8   0.1234   0.1043   0.2959   0.0414   0.0635   0.1026   0.00    0.0
2334 496115.0   45 56 52.15957  -66 37 54.53856   -20.2188   6   8   0.1239   0.1047   0.2970   0.0416   0.0637   0.1031   0.00    0.0
2334 496116.0   45 56 52.15918  -66 37 54.53857   -20.2198   6   8   0.1244   0.1052   0.2981   0.0418   0.0639   0.1037   0.00    0.0
2334 496117.0   45 56 52.15937  -66 37 54.53894   -20.2555   6   8   0.1249   0.1056   0.2992   0.0420   0.0642   0.1042   0.00    0.0
2334 496118.0   45 56 52.15927  -66 37 54.53920   -20.2675   6   8   0.1254   0.1060   0.3004   0.0422   0.0644   0.1047   0.00    0.0
2334 496119.0   45 56 52.15919  -66 37 54.53923   -20.2690   6   8   0.1259   0.1064   0.3015   0.0423   0.0647   0.1053   0.00    0.0
2334 496120.0   45 56 52.15913  -66 37 54.53915   -20.2568   6   8   0.1264   0.1068   0.3026   0.0425   0.0649   0.1058   0.00    0.0
2334 496121.0   45 56 52.15936  -66 37 54.53926   -20.2664   6   8   0.1269   0.1072   0.3037   0.0427   0.0651   0.1063   0.00    0.0
2334 496122.0   45 56 52.15931  -66 37 54.53920   -20.2545   6   8   0.1274   0.1077   0.3048   0.0429   0.0654   0.1068   0.00    0.0
2334 496123.0   45 56 52.15950  -66 37 54.53959   -20.2764   6   8   0.1279   0.1081   0.3060   0.0431   0.0656   0.1074   0.00    0.0
2334 496124.0   45 56 52.15968  -66 37 54.53984   -20.2942   6   8   0.1284   0.1085   0.3071   0.0433   0.0658   0.1079   0.00    0.0
2334 496125.0   45 56 52.15945  -66 37 54.53945   -20.2730   6   8   0.1289   0.1089   0.3082   0.0435   0.0661   0.1084   0.00    0.0
2334 496126.0   45 56 52.15937  -66 37 54.53921   -20.2631   6   8   0.1294   0.1093   0.3093   0.0437   0.0663   0.1090   0.00    0.0
2334 496127.0   45 56 52.15946  -66 37 54.53963   -20.2845   6   8   0.1300   0.1097   0.3104   0.0439   0.0665   0.1095   0.00    0.0
2334 496128.0   45 56 52.15942  -66 37 54.53973   -20.2972   6   8   0.1305   0.1102   0.3116   0.0440   0.0668   0.1100   0.00    0.0
2334 496129.0   45 56 52.15912  -66 37 54.53951   -20.2945   6   8   0.1310   0.1106   0.3127   0.0442   0.0670   0.1106   0.00    0.0
2334 496130.0   45 56 52.15872  -66 37 54.53952   -20.2823   6   8   0.1315   0.1110   0.3138   0.0444   0.0673   0.1111   0.00    0.0
2334 496131.0   45 56 52.15855  -66 37 54.53944   -20.2734   6   8   0.1320   0.1114   0.3149   0.0446   0.0675   0.1116   0.00    0.0
2334 496132.0   45 56 52.15878  -66 37 54.53950   -20.2689   6   8   0.1325   0.1118   0.3160   0.0448   0.0677   0.1121   0.00    0.0
2334 496133.0   45 56 52.15910  -66 37 54.53966   -20.2773   6   8   0.1330   0.1122   0.3171   0.0450   0.0680   0.1127   0.00    0.0
2334 496134.0   45 56 52.15921  -66 37 54.53955   -20.2692   6   8   0.1335   0.1127   0.3183   0.0452   0.0682   0.1132   0.00    0.0
2334 496135.0   45 56 52.15924  -66 37 54.53909   -20.2542   6   8   0.1340   0.1131   0.3194   0.0454   0.0684   0.1137   0.00    0.0
2334 496136.0   45 56 52.15923  -66 37 54.53914   -20.2705   6   8   0.1345   0.1135   0.3205   0.0456   0.0687   0.1143   0.00    0.0
