%  GPST          latitude(d'")   longitude(d'")  height(m)   Q  ns   sdn(m)   sde(m)   sdu(m)  sdne(m)  sdeu(m)  sdue(m) age(s)  ratio
2334 495703.0   45 56 52.13630  -66 37 54.61865   -19.4835   6   7   0.1829   0.1682   0.4955  -0.0915   0.2056  -0.1459   0.00    0.0
2334 495704.0   45 56 52.13727  -66 37 54.61896   -19.4991   6   7   0.1810   0.1664   0.4898  -0.0903   0.2034  -0.1444   0.00    0.0
2334 495705.0   45 56 52.13763  -66 37 54.61940   -19.5268   6   7   0.1791   0.1647   0.4844  -0.0892   0.2014  -0.1431   0.00    0.0
2334 495706.0   45 56 52.13822  -66 37 54.61958   -19.5550   6   7   0.1772   0.1631   0.4792  -0.0881   0.1995  -0.1417   0.00    0.0
2334 495707.0   45 56 52.13903  -66 37 54.62025   -19.6185   6   7   0.1755   0.1615   0.4743  -0.0871   0.1976  -0.1404   0.00    0.0
2334 495708.0   45 56 52.13970  -66 37 54.62048   -19.6624   6   7   0.1738   0.1599   0.4695  -0.0861   0.1957  -0.1391   0.00    0.0
2334 495709.0   45 56 52.14034  -66 37 54.62060   -19.6981   6   7   0.1721   0.1584   0.4649  -0.0851   0.1939  -0.1378   0.00    0.0
2334 495710.0   45 56 52.14079  -66 37 54.62108   -19.7474   6   7   0.1705   0.1570   0.4605  -0.0842   0.1922  -0.1366   0.00    0.0
2334 495711.0   45 56 52.14146  -66 37 54.62143   -19.8112   6   7   0.1689   0.1556   0.4562  -0.0833   0.1905  -0.1354   0.00    0.0
2334 495712.0   45 56 52.14173  -66 37 54.62173   -19.8369   6   7   0.1674   0.1542   0.4521  -0.0825   0.1889  -0.1342   0.00    0.0
2334 495713.0   45 56 52.14193  -66 37 54.62200   -19.8737   6   7   0.1660   0.1529   0.4481  -0.0817   0.1873  -0.1331   0.00    0.0
2334 495714.0   45 56 52.14207  -66 37 54.62173   -19.8818   6   7   0.1645   0.1516   0.4442  -0.0809   0.1857  -0.1320   0.00    0.0
2334 495715.0   45 56 52.14251  -66 37 54.62189   -19.9141   6   7   0.1631   0.1503   0.4405  -0.0801   0.1842  -0.1309   0.00    0.0
2334 495716.0   45 56 52.14285  -66 37 54.62182   -19.9451   6   7   0.1618   0.1491   0.4368  -0.0794   0.1827  -0.1298   0.00    0.0
2334 495717.0   45 56 52.14320  -66 37 54.62196   -19.9854   6   7   0.1604   0.1479   0.4332  -0.0787   0.1812  -0.1287   0.00    0.0
2334 495718.0   45 56 52.14337  -66 37 54.62207   -19.9977   6   7   0.1591   0.1467   0.4297  -0.0780   0.1798  -0.1277   0.00    0.0
2334 495719.0   45 56 52.14347  -66 37 54.62234   -20.0260   6   7   0.1578   0.1455   0.4263  -0.0773   0.1784  -0.1267   0.00    0.0
2334 495720.0   45 56 52.14376  -66 37 54.62246   -20.0583   6   7   0.1566   0.1444   0.4230  -0.0766   0.1770  -0.1257   0.00    0.0
2334 495721.0   45 56 52.14407  -66 37 54.62282   -20.0935   6   7   0.1554   0.1433   0.4197  -0.0760   0.1757  -0.1247   0.00    0.0
2334 495722.0   45 56 52.14439  -66 37 54.62302   -20.1199   6   7   0.1541   0.1422   0.4165  -0.0753   0.1743  -0.1237   0.00    0.0
2334 495723.0   45 56 52.14461  -66 37 54.62322   -20.1472   6   7   0.1530   0.1411   0.4134  -0.0747   0.1730  -0.1228   0.00    0.0
2334 495724.0   45 56 52.14495  -66 37 54.62360   -20.1789   6   7   0.1518   0.1401   0.4103  -0.0741   0.1717  -0.1218   0.00    0.0
2334 495725.0   45 56 52.14531  -66 37 54.62377   -20.2076   6   7   0.1506   0.1390   0.4072  -0.0735   0.1705  -0.1209   0.00    0.0
2334 495726.0   45 56 52.14532  -66 37 54.62388   -20.2091   6   7   0.1495   0.1380   0.4043  -0.0729   0.1692  -0.1200   0.00    0.0
2334 495727.0   45 56 52.14557  -66 37 54.62405   -20.2238   6   7   0.1484   0.1370   0.4013  -0.0724   0.1680  -0.1191   0.00    0.0
2334 495728.0   45 56 52.14592  -66 37 54.62423   -20.2401   6   7   0.1473   0.1360   0.3984  -0.0718   0.1668  -0.1182   0.00    0.0
2334 495729.0   45 56 52.14622  -66 37 54.62422   -20.2567   6   7   0.1462   0.1350   0.3956  -0.0713   0.1656  -0.1173   0.00    0.0
2334 495730.0   45 56 52.14646  -66 37 54.62423   -20.2616   6   7   0.1452   0.1341   0.3928  -0.0707   0.1644  -0.1165   0.00    0.0
2334 495731.0   45 56 52.14661  -66 37 54.62412   -20.2780   6   7   0.1441   0.1331   0.3900  -0.0702   0.1633  -0.1156   0.00    0.0
2334 495732.0   45 56 52.14694  -66 37 54.62396   -20.2824   6   7   0.1431   0.1322   0.3873  -0.0697   0.1621  -0.1148   0.00    0.0
2334 495733.0   45 56 52.14712  -66 37 54.62413   -20.2903   6   7   0.1421   0.1312   0.3846  -0.0692   0.1610  -0.1139   0.00    0.0
2334 495734.0   45 56 52.14737  -66 37 54.62387   -20.2935   6   7   0.1410   0.1303   0.3819  -0.0686   0.1599  -0.1131   0.00    0.0
2334 495735.0   45 56 52.14734  -66 37 54.62378   -20.2943   6   7   0.1400   0.1294   0.3793  -0.0681   0.1588  -0.1123   0.00    0.0
2334 495736.0   45 56 52.14740  -66 37 54.62333   -20.2831   6   7   0.1391   0.1285   0.3767  -0.0676   0.1577  -0.1115   0.00    0.0
2334 495737.0   45 56 52.14751  -66 37 54.62323   -20.2831   6   7   0.1381   0.1276   0.3741  -0.0672   0.1566  -0.1107   0.00    0.0
2334 495738.0   45 56 52.14762  -66 37 54.62358   -20.3004   6   7   0.1371   0.1267   0.3716  -0.0667   0.1555  -0.1099   0.00    0.0
2334 495739.0   45 56 52.14802  -66 37 54.62378   -20.3356   6   7   0.1361   0.1259   0.3690  -0.0662   0.1544  -0.1091   0.00    0.0
2334 495740.0   45 56 52.14830  -66 37 54.62379   -20.3547   6   7   0.1352   0.1250   0.3665  -0.0657   0.1534  -0.1084   0.00    0.0
2334 495741.0   45 56 52.14847  -66 37 54.62407   -20.3712   6   7   0.1343   0.1242   0.3641  -0.0653   0.1523  -0.1076   0.00    0.0
2334 495742.0   45 56 52.14873  -66 37 54.62413   -20.3766   6   7   0.1333   0.1233   0.3616  -0.0648   0.1513  -0.1068   0.00    0.0
2334 495743.0   45 56 52.14874  -66 37 54.62386   -20.3770   6   7   0.1324   0.1225   0.3592  -0.0643   0.1503  -0.1061   0.00    0.0
2334 495744.0   45 56 52.14867  -66 37 54.62384   -20.3792   6   7   0.1315   0.1216   0.3568  -0.0639   0.1493  -0.1054   0.00    0.0
2334 495745.0   45 56 52.14872  -66 37 54.62368   -20.3881   6   7   0.1306   0.1208   0.3544  -0.0634   0.1482  -0.1046   0.00    0.0
2334 495746.0   45 56 52.14867  -66 37 54.62368   -20.3893   6   7   0.1297   0.1200   0.3520  -0.0630   0.1472  -0.1039   0.00    0.0
2334 495747.0   45 56 52.14873  -66 37 54.62329   -20.3803   6   7   0.1288   0.1192   0.3496  -0.0626   0.1462  -0.1032   0.00    0.0
2334 495748.0   45 56 52.14880  -66 37 54.62311   -20.3756   6   7   0.1279   0.1184   0.3473  -0.0621   0.1452  -0.1024   0.00    0.0
2334 495749.0   45 56 52.14878  -66 37 54.62276   -20.3683   6   7   0.1270   0.1176   0.3449  -0.0617   0.1443  -0.1017   0.00    0.0
2334 495750.0   45 56 52.14873  -66 37 54.62270   -20.3652   6   7   0.1261   0.1168   0.3426  -0.0613   0.1433  -0.1010   0.00    0.0
2334 495751.0   45 56 52.14875  -66 37 54.62273   -20.3732   6   7   0.1253   0.1160   0.3403  -0.0608   0.1423  -0.1003   0.00    0.0
2334 495752.0   45 56 52.14890  -66 37 54.62267   -20.3739   6   7   0.1244   0.1152   0.3380  -0.0604   0.1414  -0.0996   0.00    0.0
2334 495753.0   45 56 52.14896  -66 37 54.62263   -20.3703   6   7   0.1236   0.1144   0.3358  -0.0600   0.1404  -0.0989   0.00    0.0
2334 495754.0   45 56 52.14887  -66 37 54.62245   -20.3609   6   7   0.1227   0.1137   0.3335  -0.0596   0.1394  -0.0982   0.00    0.0
2334 495755.0   45 56 52.14878  -66 37 54.62221   -20.3557   6   7   0.1219   0.1129   0.3313  -0.0592   0.1385  -0.0976   0.00    0.0
2334 495756.0   45 56 52.14867  -66 37 54.62215   -20.3541   6   7   0.1210   0.1121   0.3290  -0.0588   0.1376  -0.0969   0.00    0.0
2334 495757.0   45 56 52.14853  -66 37 54.62219   -20.3513   6   7   0.1202   0.1114   0.3268  -0.0584   0.1366  -0.0962   0.00    0.0
2334 495758.0   45 56 52.14846  -66 37 54.62201   -20.3488   6   7   0.1193   0.1106   0.3246  -0.0580   0.1357  -0.0955   0.00    0.0
2334 495759.0   45 56 52.14850  -66 37 54.62199   -20.3479   6   7   0.1185   0.1098   0.3224  -0.0575   0.1348  -0.0949   0.00    0.0
2334 495760.0   45 56 52.14836  -66 37 54.62192   -20.3401   6   7   0.1177   0.1091   0.3202  -0.0571   0.1338  -0.0942   0.00    0.0
2334 495761.0   45 56 52.14836  -66 37 54.62208   -20.3484   6   7   0.1169   0.1084   0.3180  -0.0567   0.1329  -0.0936   0.00    0.0
2334 495762.0   45 56 52.14833  -66 37 54.62202   -20.3502   6   7   0.1161   0.1076   0.3158  -0.0564   0.1320  -0.0929   0.00    0.0
2334 495763.0   45 56 52.14832  -66 37 54.62194   -20.3407   6   7   0.1153   0.1069   0.3137  -0.0560   0.1311  -0.0923   0.00    0.0
2334 495764.0   45 56 52.14824  -66 37 54.62187   -20.3356   6   7   0.1145   0.1061   0.3115  -0.0556   0.1302  -0.0916   0.00    0.0
2334 495765.0   45 56 52.14828  -66 37 54.62192   -20.3367   6   7   0.1136   0.1054   0.3094  -0.0552   0.1293  -0.0910   0.00    0.0
2334 495766.0   45 56 52.14823  -66 37 54.62194   -20.3331   6   7   0.1128   0.1047   0.3072  -0.0548   0.1284  -0.0903   0.00    0.0
2334 495767.0   45 56 52.14818  -66 37 54.62194   -20.3299   6   7   0.1121   0.1039   0.3051  -0.0544   0.1275  -0.0897   0.00    0.0
2334 495768.0   45 56 52.14803  -66 37 54.62202   -20.3280   6   7   0.1113   0.1032   0.3030  -0.0540   0.1266  -0.0891   0.00    0.0
2334 495769.0   45 56 52.14805  -66 37 54.62204   -20.3362   6   7   0.1105   0.1025   0.3008  -0.0536   0.1257  -0.0884   0.00    0.0
2334 495770.0   45 56 52.14795  -66 37 54.62194   -20.3291   6   7   0.1097   0.1018   0.2987  -0.0533   0.1248  -0.0878   0.00    0.0
2334 495771.0   45 56 52.14791  -66 37 54.62199   -20.3229   6   7   0.1089   0.1011   0.2966  -0.0529   0.1239  -0.0872   0.00    0.0
2334 495772.0   45 56 52.14787  -66 37 54.62187   -20.3189   6   7   0.1081   0.1004   0.2945  -0.0525   0.1230  -0.0866   0.00    0.0
2334 495773.0   45 56 52.14771  -66 37 54.62191   -20.3063   6   7   0.1074   0.0997   0.2924  -0.0521   0.1222  -0.0860   0.00    0.0
2334 495774.0   45 56 52.14775  -66 37 54.62174   -20.2937   6   7   0.1066   0.0989   0.2903  -0.0517   0.1213  -0.0853   0.00    0.0
2334 495775.0   45 56 52.14776  -66 37 54.62189   -20.2927   6   7   0.1058   0.0982   0.2882  -0.0514   0.1204  -0.0847   0.00    0.0
2334 495776.0   45 56 52.14767  -66 37 54.62204   -20.2925   6   7   0.1051   0.0975   0.2862  -0.0510   0.1195  -0.0841   0.00    0.0
2334 495777.0   45 56 52.14763  -66 37 54.62208   -20.2845   6   7   0.1043   0.0968   0.2841  -0.0506   0.1187  -0.0835   0.00    0.0
2334 495778.0   45 56 52.14758  -66 37 54.62180   -20.2671   6   7   0.1035   0.0961   0.2820  -0.0503   0.1178  -0.0829   0.00    0.0
2334 495779.0   45 56 52.14754  -66 37 54.62183   -20.2614   6   7   0.1028   0.0954   0.2800  -0.0499   0.1169  -0.0823   0.00    0.0
2334 495780.0   45 56 52.14754  -66 37 54.62178   -20.2493   6   7   0.1020   0.0947   0.2779  -0.0495   0.1161  -0.0817   0.00    0.0
2334 495781.0   45 56 52.14750  -66 37 54.62169   -20.2435   6   7   0.1013   0.0941   0.2758  -0.0492   0.1152  -0.0811   0.00    0.0
2334 495782.0   45 56 52.14740  -66 37 54.62168   -20.2365   6   7   0.1005   0.0934   0.2738  -0.0488   0.1144  -0.0805   0.00    0.0
2334 495783.0   45 56 52.14736  -66 37 54.62147   -20.2019   6   7   0.0998   0.0927   0.2717  -0.0484   0.1135  -0.0799   0.00    0.0
2334 495784.0   45 56 52.14733  -66 37 54.62142   -20.1909   6   7   0.0990   0.0920   0.2697  -0.0481   0.1127  -0.0794   0.00    0.0
2334 495785.0   45 56 52.14724  -66 37 54.62133   -20.1776   6   7   0.0983   0.0913   0.2677  -0.0477   0.1118  -0.0788   0.00    0.0
2334 495786.0   45 56 52.14724  -66 37 54.62131   -20.1653   6   7   0.0975   0.0906   0.2656  -0.0473   0.1110  -0.0782   0.00    0.0
2334 495787.0   45 56 52.14723  -66 37 54.62124   -20.1469   6   7   0.0968   0.0899   0.2636  -0.0470   0.1101  -0.0776   0.00    0.0
2334 495788.0   45 56 52.14719  -66 37 54.62092   -20.1385   6   7   0.0960   0.0893   0.2616  -0.0466   0.1093  -0.0770   0.00    0.0
2334 495789.0   45 56 52.14713  -66 37 54.62090   -20.1263   6   7   0.0953   0.0886   0.2595  -0.0463   0.1084  -0.0765   0.00    0.0
2334 495790.0   45 56 52.14691  -66 37 54.62102   -20.1277   6   7   0.0946   0.0879   0.2575  -0.0459   0.1076  -0.0759   0.00    0.0
2334 495791.0   45 56 52.14683  -66 37 54.62097   -20.1187   6   7   0.0938   0.0872   0.2555  -0.0456   0.1067  -0.0753   0.00    0.0
2334 495792.0   45 56 52.14689  -66 37 54.62135   -20.1262   6   7   0.0931   0.0866   0.2535  -0.0452   0.1059  -0.0747   0.00    0.0
2334 495793.0   45 56 52.14664  -66 37 54.62114   -20.1041   6   7   0.0924   0.0859   0.2515  -0.0448   0.1051  -0.0742   0.00    0.0
2334 495794.0   45 56 52.14644  -66 37 54.62119   -20.0884   6   7   0.0917   0.0852   0.2494  -0.0445   0.1042  -0.0736   0.00    0.0
2334 495795.0   45 56 52.14627  -66 37 54.62126   -20.0898   6   7   0.0909   0.0845   0.2474  -0.0441   0.1034  -0.0731   0.00    0.0
2334 495796.0   45 56 52.14614  -66 37 54.62139   -20.0743   6   7   0.0902   0.0839   0.2454  -0.0438   0.1025  -0.0725   0.00    0.0
2334 495797.0   45 56 52.14598  -66 37 54.62154   -20.0797   6   7   0.0895   0.0832   0.2434  -0.0434   0.1017  -0.0719   0.00    0.0
2334 495798.0   45 56 52.14582  -66 37 54.62139   -20.0598   6   7   0.0888   0.0825   0.2414  -0.0431   0.1009  -0.0714   0.00    0.0
2334 495799.0   45 56 52.14573  -66 37 54.62152   -20.0590   6   7   0.0881   0.0819   0.2394  -0.0427   0.1000  -0.0708   0.00    0.0
2334 495800.0   45 56 52.14554  -66 37 54.62126   -20.0318   6   7   0.0873   0.0812   0.2374  -0.0424   0.0992  -0.0703   0.00    0.0
2334 495801.0   45 56 52.14550  -66 37 54.62142   -20.0296   6   7   0.0866   0.0806   0.2354  -0.0420   0.0984  -0.0697   0.00    0.0
2334 495802.0   45 56 52.14531  -66 37 54.62143   -20.0140   6   7   0.0859   0.0799   0.2334  -0.0417   0.0976  -0.0692   0.00    0.0
2334 495803.0   45 56 52.14522  -66 37 54.62145   -20.0062   6   7   0.0852   0.0792   0.2314  -0.0414   0.0967  -0.0686   0.00    0.0
2334 495804.0   45 56 52.14506  -66 37 54.62157   -20.0119   6   7   0.0845   0.0786   0.2294  -0.0410   0.0959  -0.0681   0.00    0.0
2334 495805.0   45 56 52.14482  -66 37 54.62155   -19.9966   6   7   0.0838   0.0779   0.2274  -0.0407   0.0951  -0.0676   0.00    0.0
2334 495806.0   45 56 52.14470  -66 37 54.62154   -19.9790   6   7   0.0831   0.0773   0.2254  -0.0403   0.0943  -0.0670   0.00    0.0
2334 495807.0   45 56 52.14449  -66 37 54.62151   -19.9685   6   7   0.0824   0.0766   0.2234  -0.0400   0.0934  -0.0665   0.00    0.0
2334 495808.0   45 56 52.14437  -66 37 54.62155   -19.9672   6   7   0.0817   0.0760   0.2214  -0.0396   0.0926  -0.0659   0.00    0.0
2334 495809.0   45 56 52.14410  -66 37 54.62158   -19.9542   6   7   0.0810   0.0753   0.2194  -0.0393   0.0918  -0.0654   0.00    0.0
2334 495810.0   45 56 52.14396  -66 37 54.62148   -19.9446   6   7   0.0803   0.0747   0.2174  -0.0389   0.0910  -0.0649   0.00    0.0
2334 495811.0   45 56 52.14374  -66 37 54.62154   -19.9382   6   7   0.0796   0.0740   0.2154  -0.0386   0.0901  -0.0644   0.00    0.0
2334 495812.0   45 56 52.14360  -66 37 54.62147   -19.9284   6   7   0.0789   0.0734   0.2134  -0.0383   0.0893  -0.0638   0.00    0.0
2334 495813.0   45 56 52.14343  -66 37 54.62157   -19.9221   6   7   0.0782   0.0727   0.2114  -0.0379   0.0885  -0.0633   0.00    0.0
2334 495814.0   45 56 52.14330  -66 37 54.62151   -19.9112   6   7   0.0775   0.0721   0.2095  -0.0376   0.0877  -0.0628   0.00    0.0
2334 495815.0   45 56 52.14328  -66 37 54.62135   -19.9003   6   7   0.0768   0.0714   0.2075  -0.0372   0.0869  -0.0623   0.00    0.0
2334 495816.0   45 56 52.14302  -66 37 54.62133   -19.8976   6   7   0.0761   0.0708   0.2055  -0.0369   0.0861  -0.0618   0.00    0.0
2334 495817.0   45 56 52.14283  -66 37 54.62124   -19.8793   6   7   0.0754   0.0701   0.2035  -0.0366   0.0852  -0.0612   0.00    0.0
2334 495818.0   45 56 52.14289  -66 37 54.62115   -19.8768   6   7   0.0747   0.0695   0.2015  -0.0362   0.0844  -0.0607   0.00    0.0
2334 495819.0   45 56 52.14272  -66 37 54.62108   -19.8641   6   7   0.0740   0.0688   0.1995  -0.0359   0.0836  -0.0602   0.00    0.0
2334 495820.0   45 56 52.14252  -66 37 54.62087   -19.8417   6   7   0.0734   0.0682   0.1975  -0.0356   0.0828  -0.0597   0.00    0.0
2334 495821.0   45 56 52.14241  -66 37 54.62100   -19.8433   6   7   0.0727   0.0676   0.1955  -0.0352   0.0820  -0.0592   0.00    0.0
2334 495822.0   45 56 52.14221  -66 37 54.62102   -19.8332   6   7   0.0720   0.0669   0.1936  -0.0349   0.0812  -0.0587   0.00    0.0
2334 495823.0   45 56 52.14212  -66 37 54.62103   -19.8278   6   7   0.0713   0.0663   0.1916  -0.0346   0.0804  -0.0582   0.00    0.0
2334 495824.0   45 56 52.14199  -66 37 54.62101   -19.8277   6   7   0.0706   0.0656   0.1896  -0.0342   0.0795  -0.0577   0.00    0.0
2334 495825.0   45 56 52.14185  -66 37 54.62097   -19.8215   6   7   0.0700   0.0650   0.1876  -0.0339   0.0787  -0.0572   0.00    0.0
2334 495826.0   45 56 52.14159  -66 37 54.62080   -19.8102   6   7   0.0693   0.0644   0.1856  -0.0336   0.0779  -0.0567   0.00    0.0
2334 495827.0   45 56 52.14140  -66 37 54.62093   -19.8176   6   7   0.0686   0.0637   0.1836  -0.0332   0.0771  -0.0562   0.00    0.0
2334 495828.0   45 56 52.14123  -66 37 54.62077   -19.8066   6   7   0.0679   0.0631   0.1817  -0.0329   0.0763  -0.0557   0.00    0.0
2334 495829.0   45 56 52.14112  -66 37 54.62072   -19.8001   6   7   0.0673   0.0625   0.1797  -0.0326   0.0755  -0.0553   0.00    0.0
2334 495830.0   45 56 52.14100  -66 37 54.62062   -19.7976   6   7   0.0666   0.0618   0.1777  -0.0322   0.0747  -0.0548   0.00    0.0
2334 495831.0   45 56 52.14097  -66 37 54.62062   -19.7948   6   7   0.0659   0.0612   0.1757  -0.0319   0.0739  -0.0543   0.00    0.0
2334 495832.0   45 56 52.14086  -66 37 54.62061   -19.7828   6   7   0.0653   0.0606   0.1737  -0.0316   0.0731  -0.0538   0.00    0.0
2334 495833.0   45 56 52.14075  -66 37 54.62051   -19.7802   6   7   0.0646   0.0599   0.1717  -0.0313   0.0723  -0.0533   0.00    0.0
2334 495834.0   45 56 52.14066  -66 37 54.62036   -19.7592   6   7   0.0639   0.0593   0.1698  -0.0309   0.0715  -0.0529   0.00    0.0
2334 495835.0   45 56 52.14059  -66 37 54.62027   -19.7497   6   7   0.0633   0.0587   0.1678  -0.0306   0.0707  -0.0524   0.00    0.0
2334 495836.0   45 56 52.14030  -66 37 54.62044   -19.7476   6   7   0.0626   0.0581   0.1658  -0.0303   0.0699  -0.0519   0.00    0.0
2334 495837.0   45 56 52.14022  -66 37 54.62042   -19.7451   6   7   0.0620   0.0575   0.1638  -0.0299   0.0691  -0.0515   0.00    0.0
2334 495838.0   45 56 52.13999  -66 37 54.62029   -19.7303   6   7   0.0613   0.0568   0.1619  -0.0296   0.0683  -0.0510   0.00    0.0
2334 495839.0   45 56 52.13995  -66 37 54.62014   -19.7230   6   7   0.0607   0.0562   0.1599  -0.0293   0.0675  -0.0506   0.00    0.0
2334 495840.0   45 56 52.13978  -66 37 54.62007   -19.7155   6   7   0.0600   0.0556   0.1579  -0.0290   0.0667  -0.0501   0.00    0.0
2334 495841.0   45 56 52.13983  -66 37 54.62016   -19.7236   6   7   0.0594   0.0550   0.1559  -0.0287   0.0659  -0.0497   0.00    0.0
2334 495842.0   45 56 52.13985  -66 37 54.62013   -19.7221   6   7   0.0587   0.0544   0.1540  -0.0283   0.0651  -0.0492   0.00    0.0
2334 495843.0   45 56 52.13968  -66 37 54.62003   -19.7168   6   7   0.0581   0.0538   0.1520  -0.0280   0.0643  -0.0488   0.00    0.0
2334 495844.0   45 56 52.13960  -66 37 54.61992   -19.7097   6   7   0.0574   0.0531   0.1500  -0.0277   0.0635  -0.0484   0.00    0.0
2334 495845.0   45 56 52.13951  -66 37 54.61981   -19.7052   6   7   0.0568   0.0525   0.1481  -0.0274   0.0627  -0.0479   0.00    0.0
2334 495846.0   45 56 52.13942  -66 37 54.61964   -19.6935   6   7   0.0562   0.0519   0.1461  -0.0271   0.0619  -0.0475   0.00    0.0
2334 495847.0   45 56 52.13927  -66 37 54.61963   -19.6852   6   7   0.0555   0.0513   0.1442  -0.0267   0.0611  -0.0471   0.00    0.0
2334 495848.0   45 56 52.13914  -66 37 54.61949   -19.6711   6   7   0.0549   0.0507   0.1422  -0.0264   0.0603  -0.0467   0.00    0.0
2334 495849.0   45 56 52.13901  -66 37 54.61953   -19.6679   6   7   0.0543   0.0501   0.1403  -0.0261   0.0595  -0.0462   0.00    0.0
2334 495850.0   45 56 52.13907  -66 37 54.61952   -19.6702   6   7   0.0537   0.0495   0.1383  -0.0258   0.0588  -0.0458   0.00    0.0
2334 495851.0   45 56 52.13884  -66 37 54.61916   -19.6533   6   8   0.0531   0.0489   0.1363  -0.0255   0.0580  -0.0454   0.00    0.0
2334 495852.0   45 56 52.13734  -66 37 54.61669   -19.4773   6   8   0.0470   0.0407   0.1025  -0.0050   0.0316  -0.0017   0.00    0.0
2334 495853.0   45 56 52.13753  -66 37 54.61718   -19.5139   6   8   0.0465   0.0403   0.1013  -0.0056   0.0314  -0.0062   0.00    0.0
2334 495854.0   45 56 52.13743  -66 37 54.61688   -19.4999   6   8   0.0461   0.0398   0.1000  -0.0059   0.0313  -0.0085   0.00    0.0
2334 495855.0   45 56 52.13734  -66 37 54.61699   -19.5119   6   8   0.0456   0.0395   0.0988  -0.0064   0.0311  -0.0104   0.00    0.0
2334 495856.0   45 56 52.13744  -66 37 54.61707   -19.5166   6   8   0.0451   0.0391   0.0976  -0.0068   0.0310  -0.0119   0.00    0.0
2334 495857.0   45 56 52.13748  -66 37 54.61716   -19.5335   6   8   0.0447   0.0386   0.0964  -0.0072   0.0309  -0.0133   0.00    0.0
2334 495858.0   45 56 52.13737  -66 37 54.61699   -19.5243   6   8   0.0442   0.0383   0.0952  -0.0076   0.0307  -0.0144   0.00    0.0
2334 495859.0   45 56 52.13744  -66 37 54.61700   -19.5234   6   8   0.0438   0.0379   0.0940  -0.0079   0.0306  -0.0155   0.00    0.0
2334 495860.0   45 56 52.13722  -66 37 54.61674   -19.4969   6   8   0.0434   0.0375   0.0928  -0.0082   0.0304  -0.0165   0.00    0.0
2334 495861.0   45 56 52.13705  -66 37 54.61655   -19.4879   6   8   0.0429   0.0371   0.0917  -0.0085   0.0303  -0.0175   0.00    0.0
2334 495862.0   45 56 52.13721  -66 37 54.61679   -19.5128   6   8   0.0425   0.0368   0.0905  -0.0088   0.0302  -0.0183   0.00    0.0
2334 495863.0   45 56 52.13708  -66 37 54.61664   -19.4973   6   8   0.0421   0.0364   0.0893  -0.0090   0.0300  -0.0191   0.00    0.0
2334 495864.0   45 56 52.13717  -66 37 54.61661   -19.5053   6   8   0.0416   0.0360   0.0882  -0.0093   0.0299  -0.0198   0.00    0.0
2334 495865.0   45 56 52.13724  -66 37 54.61678   -19.5166   6   8   0.0412   0.0357   0.0871  -0.0096   0.0298  -0.0205   0.00    0.0
2334 495866.0   45 56 52.13705  -66 37 54.61658   -19.5047   6   8   0.0408   0.0353   0.0860  -0.0098   0.0297  -0.0212   0.00    0.0
2334 495867.0   45 56 52.13711  -66 37 54.61670   -19.5023   6   8   0.0404   0.0350   0.0849  -0.0100   0.0296  -0.0218   0.00    0.0
2334 495868.0   45 56 52.13709  -66 37 54.61670   -19.5058   6   8   0.0401   0.0347   0.0838  -0.0102   0.0294  -0.0224   0.00    0.0
2334 495869.0   45 56 52.13717  -66 37 54.61688   -19.5100   6   8   0.0397   0.0343   0.0827  -0.0104   0.0293  -0.0230   0.00    0.0
2334 495870.0   45 56 52.13713  -66 37 54.61700   -19.5118   6   8   0.0393   0.0340   0.0816  -0.0106   0.0292  -0.0235   0.00    0.0
2334 495871.0   45 56 52.13714  -66 37 54.61703   -19.5039   6   8   0.0389   0.0337   0.0806  -0.0107   0.0291  -0.0241   0.00    0.0
2334 495872.0   45 56 52.13716  -66 37 54.61711   -19.5079   6   8   0.0386   0.0334   0.0796  -0.0109   0.0290  -0.0245   0.00    0.0
2334 495873.0   45 56 52.13717  -66 37 54.61723   -19.5104   6   8   0.0382   0.0331   0.0786  -0.0111   0.0289  -0.0250   0.00    0.0
2334 495874.0   45 56 52.13724  -66 37 54.61746   -19.5186   6   8   0.0379   0.0328   0.0776  -0.0113   0.0288  -0.0254   0.00    0.0
2334 495875.0   45 56 52.13720  -66 37 54.61751   -19.5133   6   8   0.0375   0.0325   0.0767  -0.0114   0.0287  -0.0258   0.00    0.0
2334 495876.0   45 56 52.13712  -66 37 54.61766   -19.5132   6   8   0.0372   0.0322   0.0757  -0.0115   0.0286  -0.0262   0.00    0.0
2334 495877.0   45 56 52.13713  -66 37 54.61784   -19.5198   6   8   0.0369   0.0320   0.0748  -0.0117   0.0285  -0.0266   0.00    0.0
2334 495878.0   45 56 52.13714  -66 37 54.61796   -19.5237   6   8   0.0366   0.0317   0.0739  -0.0118   0.0284  -0.0270   0.00    0.0
2334 495879.0   45 56 52.13720  -66 37 54.61802   -19.5233   6   8   0.0363   0.0314   0.0730  -0.0119   0.0283  -0.0273   0.00    0.0
2334 495880.0   45 56 52.13707  -66 37 54.61814   -19.5287   6   8   0.0360   0.0312   0.0722  -0.0120   0.0282  -0.0276   0.00    0.0
2334 495881.0   45 56 52.13694  -66 37 54.61809   -19.5178   6   8   0.0357   0.0310   0.0714  -0.0121   0.0282  -0.0279   0.00    0.0
2334 495882.0   45 56 52.13684  -66 37 54.61790   -19.5026   6   8   0.0355   0.0308   0.0706  -0.0122   0.0281  -0.0281   0.00    0.0
2334 495883.0   45 56 52.13676  -66 37 54.61786   -19.4999   6   8   0.0353   0.0305   0.0699  -0.0123   0.0280  -0.0285   0.00    0.0
2334 495884.0   45 56 52.13675  -66 37 54.61809   -19.5098   6   8   0.0350   0.0303   0.0692  -0.0123   0.0279  -0.0287   0.00    0.0
2334 495885.0   45 56 52.13689  -66 37 54.61817   -19.5212   6   8   0.0348   0.0301   0.0684  -0.0124   0.0279  -0.0289   0.00    0.0
2334 495886.0   45 56 52.13678  -66 37 54.61827   -19.5222   6   8   0.0346   0.0299   0.0678  -0.0126   0.0278  -0.0291   0.00    0.0
2334 495887.0   45 56 52.13684  -66 37 54.61842   -19.5215   6   8   0.0344   0.0298   0.0672  -0.0126   0.0278  -0.0293   0.00    0.0
2334 495888.0   45 56 52.13687  -66 37 54.61848   -19.5192   6   8   0.0342   0.0296   0.0666  -0.0127   0.0277  -0.0295   0.00    0.0
2334 495889.0   45 56 52.13693  -66 37 54.61880   -19.5369   6   8   0.0341   0.0294   0.0661  -0.0128   0.0277  -0.0296   0.00    0.0
2334 495890.0   45 56 52.13695  -66 37 54.61886   -19.5390   6   8   0.0339   0.0294   0.0656  -0.0127   0.0277  -0.0298   0.00    0.0
2334 495891.0   45 56 52.13679  -66 37 54.61886   -19.5260   6   8   0.0338   0.0292   0.0652  -0.0128   0.0276  -0.0298   0.00    0.0
2334 495892.0   45 56 52.13676  -66 37 54.61893   -19.5217   6   8   0.0336   0.0291   0.0648  -0.0129   0.0276  -0.0300   0.00    0.0
2334 495893.0   45 56 52.13667  -66 37 54.61906   -19.5211   6   8   0.0336   0.0290   0.0645  -0.0129   0.0276  -0.0301   0.00    0.0
2334 495894.0   45 56 52.13666  -66 37 54.61910   -19.5217   6   8   0.0335   0.0290   0.0642  -0.0129   0.0276  -0.0302   0.00    0.0
2334 495895.0   45 56 52.13652  -66 37 54.61896   -19.5207   6   8   0.0334   0.0289   0.0639  -0.0130   0.0276  -0.0302   0.00    0.0
2334 495896.0   45 56 52.13649  -66 37 54.61900   -19.5209   6   8   0.0333   0.0289   0.0638  -0.0130   0.0276  -0.0303   0.00    0.0
2334 495897.0   45 56 52.13645  -66 37 54.61915   -19.5242   6   8   0.0333   0.0288   0.0637  -0.0130   0.0277  -0.0305   0.00    0.0
2334 495898.0   45 56 52.13664  -66 37 54.61931   -19.5380   6   8   0.0333   0.0290   0.0636  -0.0131   0.0276  -0.0303   0.00    0.0
2334 495899.0   45 56 52.13653  -66 37 54.61919   -19.5258   6   8   0.0333   0.0289   0.0637  -0.0131   0.0278  -0.0305   0.00    0.0
2334 495900.0   45 56 52.13639  -66 37 54.61923   -19.5304   6   8   0.0333   0.0289   0.0637  -0.0132   0.0279  -0.0305   0.00    0.0
2334 495901.0   45 56 52.13636  -66 37 54.61939   -19.5376   6   8   0.0333   0.0289   0.0640  -0.0133   0.0280  -0.0306   0.00    0.0
2334 495902.0   45 56 52.13643  -66 37 54.61932   -19.5353   6   8   0.0334   0.0290   0.0641  -0.0132   0.0281  -0.0306   0.00    0.0
2334 495903.0   45 56 52.13637  -66 37 54.61942   -19.5403   6   8   0.0334   0.0291   0.0644  -0.0132   0.0282  -0.0305   0.00    0.0
2334 495904.0   45 56 52.13635  -66 37 54.61958   -19.5490   6   8   0.0335   0.0292   0.0647  -0.0132   0.0284  -0.0306   0.00    0.0
2334 495905.0   45 56 52.13634  -66 37 54.61952   -19.5462   6   8   0.0336   0.0293   0.0651  -0.0133   0.0285  -0.0305   0.00    0.0
2334 495906.0   45 56 52.13621  -66 37 54.61947   -19.5414   6   8   0.0337   0.0293   0.0655  -0.0132   0.0287  -0.0305   0.00    0.0
2334 495907.0   45 56 52.13614  -66 37 54.61949   -19.5423   6   8   0.0338   0.0295   0.0659  -0.0133   0.0288  -0.0305   0.00    0.0
2334 495908.0   45 56 52.13611  -66 37 54.61964   -19.5548   6   8   0.0340   0.0297   0.0665  -0.0134   0.0291  -0.0304   0.00    0.0
2334 495909.0   45 56 52.13609  -66 37 54.61970   -19.5667   6   8   0.0341   0.0298   0.0671  -0.0133   0.0292  -0.0304   0.00    0.0
2334 495910.0   45 56 52.13611  -66 37 54.61973   -19.5660   6   8   0.0344   0.0300   0.0676  -0.0134   0.0294  -0.0302   0.00    0.0
2334 495911.0   45 56 52.13602  -66 37 54.61981   -19.5764   6   8   0.0345   0.0302   0.0684  -0.0134   0.0296  -0.0301   0.00    0.0
2334 495912.0   45 56 52.13617  -66 37 54.61988   -19.5775   6   8   0.0347   0.0304   0.0691  -0.0134   0.0298  -0.0300   0.00    0.0
2334 495913.0   45 56 52.13606  -66 37 54.62001   -19.5775   6   8   0.0349   0.0306   0.0698  -0.0134   0.0301  -0.0299   0.00    0.0
2334 495914.0   45 56 52.13609  -66 37 54.62018   -19.5794   6   8   0.0351   0.0308   0.0706  -0.0134   0.0303  -0.0298   0.00    0.0
2334 495915.0   45 56 52.13612  -66 37 54.62035   -19.5805   6   8   0.0354   0.0311   0.0714  -0.0133   0.0305  -0.0297   0.00    0.0
2334 495916.0   45 56 52.13593  -66 37 54.62042   -19.5699   6   8   0.0356   0.0314   0.0723  -0.0134   0.0307  -0.0295   0.00    0.0
2334 495917.0   45 56 52.13591  -66 37 54.62056   -19.5830   6   8   0.0359   0.0316   0.0731  -0.0133   0.0310  -0.0293   0.00    0.0
2334 495918.0   45 56 52.13595  -66 37 54.62063   -19.5954   6   8   0.0361   0.0318   0.0741  -0.0133   0.0313  -0.0292   0.00    0.0
2334 495919.0   45 56 52.13601  -66 37 54.62052   -19.5963   6   8   0.0364   0.0321   0.0750  -0.0133   0.0315  -0.0290   0.00    0.0
2334 495920.0   45 56 52.13602  -66 37 54.62048   -19.6037   6   8   0.0367   0.0323   0.0760  -0.0133   0.0318  -0.0288   0.00    0.0
2334 495921.0   45 56 52.13595  -66 37 54.62064   -19.6143   6   8   0.0370   0.0327   0.0770  -0.0132   0.0320  -0.0285   0.00    0.0
2334 495922.0   45 56 52.13583  -66 37 54.62049   -19.6081   6   8   0.0373   0.0330   0.0781  -0.0132   0.0323  -0.0283   0.00    0.0
2334 495923.0   45 56 52.13576  -66 37 54.62043   -19.6060   6   8   0.0376   0.0332   0.0791  -0.0131   0.0325  -0.0280   0.00    0.0
2334 495924.0   45 56 52.13581  -66 37 54.62045   -19.6104   6   8   0.0379   0.0335   0.0802  -0.0131   0.0328  -0.0278   0.00    0.0
2334 495925.0   45 56 52.13596  -66 37 54.62054   -19.6218   6   8   0.0382   0.0339   0.0813  -0.0131   0.0331  -0.0275   0.00    0.0
2334 495926.0   45 56 52.13586  -66 37 54.62064   -19.6386   6   8   0.0386   0.0342   0.0825  -0.0130   0.0334  -0.0273   0.00    0.0
2334 495927.0   45 56 52.13581  -66 37 54.62088   -19.6358   6   8   0.0389   0.0345   0.0836  -0.0130   0.0337  -0.0270   0.00    0.0
2334 495928.0   45 56 52.13604  -66 37 54.62071   -19.6344   6   8   0.0393   0.0348   0.0848  -0.0129   0.0340  -0.0268   0.00    0.0
2334 495929.0   45 56 52.13600  -66 37 54.62082   -19.6429   6   8   0.0396   0.0352   0.0860  -0.0129   0.0343  -0.0264   0.00    0.0
2334 495930.0   45 56 52.13586  -66 37 54.62055   -19.6416   6   8   0.0400   0.0355   0.0873  -0.0128   0.0347  -0.0261   0.00    0.0
2334 495931.0   45 56 52.13585  -66 37 54.62052   -19.6451   6   8   0.0403   0.0359   0.0885  -0.0128   0.0350  -0.0259   0.00    0.0
2334 495932.0   45 56 52.13602  -66 37 54.62080   -19.6634   6   8   0.0407   0.0363   0.0899  -0.0128   0.0354  -0.0256   0.00    0.0
2334 495933.0   45 56 52.13604  -66 37 54.62076   -19.6594   6   8   0.0411   0.0366   0.0912  -0.0128   0.0358  -0.0254   0.00    0.0
2334 495934.0   45 56 52.13610  -66 37 54.62082   -19.6649   6   8   0.0415   0.0371   0.0926  -0.0128   0.0362  -0.0252   0.00    0.0
2334 495935.0   45 56 52.13600  -66 37 54.62081   -19.6632   6   8   0.0419   0.0375   0.0941  -0.0129   0.0367  -0.0250   0.00    0.0
2334 495936.0   45 56 52.13603  -66 37 54.62103   -19.6792   6   8   0.0424   0.0379   0.0957  -0.0130   0.0372  -0.0250   0.00    0.0
2334 495937.0   45 56 52.13602  -66 37 54.62096   -19.6815   6   8   0.0428   0.0383   0.0974  -0.0132   0.0379  -0.0250   0.00    0.0
2334 495938.0   45 56 52.13604  -66 37 54.62082   -19.6808   6   8   0.0433   0.0388   0.0992  -0.0134   0.0386  -0.0252   0.00    0.0
2334 495939.0   45 56 52.13606  -66 37 54.62099   -19.6889   6   8   0.0438   0.0394   0.1014  -0.0138   0.0396  -0.0257   0.00    0.0
2334 495940.0   45 56 52.13601  -66 37 54.62076   -19.6832   6   8   0.0444   0.0400   0.1040  -0.0145   0.0409  -0.0267   0.00    0.0
2334 495941.0   45 56 52.13622  -66 37 54.62095   -19.7051   6   8   0.0451   0.0409   0.1074  -0.0155   0.0428  -0.0285   0.00    0.0
2334 495942.0   45 56 52.13632  -66 37 54.62081   -19.7008   6   8   0.0462   0.0422   0.1129  -0.0176   0.0462  -0.0321   0.00    0.0
2334 495943.0   45 56 52.13643  -66 37 54.62062   -19.7144   6   8   0.0484   0.0452   0.1254  -0.0225   0.0543  -0.0412   0.00    0.0
2334 495944.0   45 56 52.13634  -66 37 54.62065   -19.7122   6   7   0.0492   0.0462   0.1281  -0.0234   0.0558  -0.0423   0.00    0.0
2334 495945.0   45 56 52.13622  -66 37 54.62076   -19.7268   6   7   0.0497   0.0467   0.1299  -0.0237   0.0565  -0.0426   0.00    0.0
2334 495946.0   45 56 52.13630  -66 37 54.62084   -19.7375   6   7   0.0502   0.0472   0.1316  -0.0239   0.0572  -0.0429   0.00    0.0
2334 495947.0   45 56 52.13626  -66 37 54.62057   -19.7374   6   7   0.0507   0.0477   0.1334  -0.0242   0.0579  -0.0432   0.00    0.0
2334 495948.0   45 56 52.13598  -66 37 54.62028   -19.7211   6   7   0.0512   0.0482   0.1352  -0.0244   0.0586  -0.0435   0.00    0.0
2334 495949.0   45 56 52.13589  -66 37 54.62010   -19.7122   6   7   0.0517   0.0488   0.1370  -0.0247   0.0593  -0.0438   0.00    0.0
2334 495950.0   45 56 52.13576  -66 37 54.61999   -19.7105   6   7   0.0522   0.0493   0.1388  -0.0250   0.0600  -0.0442   0.00    0.0
2334 495951.0   45 56 52.13593  -66 37 54.62006   -19.7172   6   7   0.0527   0.0498   0.1406  -0.0252   0.0607  -0.0445   0.00    0.0
2334 495952.0   45 56 52.13573  -66 37 54.61998   -19.7025   6   7   0.0533   0.0503   0.1424  -0.0255   0.0614  -0.0448   0.00    0.0
2334 495953.0   45 56 52.13575  -66 37 54.61989   -19.7054   6   7   0.0538   0.0508   0.1442  -0.0257   0.0621  -0.0451   0.00    0.0
2334 495954.0   45 56 52.13588  -66 37 54.61984   -19.7064   6   7   0.0543   0.0514   0.1460  -0.0260   0.0628  -0.0454   0.00    0.0
2334 495955.0   45 56 52.13604  -66 37 54.62012   -19.7258   6   7   0.0548   0.0519   0.1478  -0.0262   0.0635  -0.0458   0.00    0.0
2334 495956.0   45 56 52.13605  -66 37 54.61980   -19.7243   6   7   0.0553   0.0524   0.1495  -0.0265   0.0642  -0.0461   0.00    0.0
2334 495957.0   45 56 52.13610  -66 37 54.61974   -19.7268   6   7   0.0559   0.0529   0.1513  -0.0268   0.0649  -0.0464   0.00    0.0
2334 495958.0   45 56 52.13593  -66 37 54.61954   -19.7270   6   7   0.0564   0.0535   0.1531  -0.0270   0.0656  -0.0468   0.00    0.0
2334 495959.0   45 56 52.13601  -66 37 54.61945   -19.7334   6   7   0.0569   0.0540   0.1549  -0.0273   0.0663  -0.0471   0.00    0.0
2334 495960.0   45 56 52.13606  -66 37 54.61913   -19.7262   6   7   0.0575   0.0545   0.1567  -0.0276   0.0670  -0.0475   0.00    0.0
2334 495961.0   45 56 52.13619  -66 37 54.61894   -19.7280   6   7   0.0580   0.0550   0.1584  -0.0278   0.0677  -0.0478   0.00    0.0
2334 495962.0   45 56 52.13629  -66 37 54.61884   -19.7220   6   7   0.0585   0.0555   0.1602  -0.0281   0.0684  -0.0481   0.00    0.0
2334 495963.0   45 56 52.13628  -66 37 54.61875   -19.7219   6   7   0.0590   0.0561   0.1620  -0.0284   0.0691  -0.0485   0.00    0.0
2334 495964.0   45 56 52.13644  -66 37 54.61879   -19.7223   6   7   0.0596   0.0566   0.1637  -0.0286   0.0698  -0.0488   0.00    0.0
2334 495965.0   45 56 52.13658  -66 37 54.61861   -19.7226   6   7   0.0601   0.0571   0.1655  -0.0289   0.0705  -0.0492   0.00    0.0
2334 495966.0   45 56 52.13668  -66 37 54.61857   -19.7292   6   7   0.0606   0.0577   0.1673  -0.0292   0.0712  -0.0495   0.00    0.0
2334 495967.0   45 56 52.13658  -66 37 54.61818   -19.7197   6   7   0.0612   0.0582   0.1690  -0.0294   0.0719  -0.0499   0.00    0.0
2334 495968.0   45 56 52.13642  -66 37 54.61779   -19.7040   6   7   0.0617   0.0587   0.1708  -0.0297   0.0726  -0.0502   0.00    0.0
2334 495969.0   45 56 52.13637  -66 37 54.61766   -19.7011   6   7   0.0622   0.0592   0.1725  -0.0300   0.0733  -0.0506   0.00    0.0
2334 495970.0   45 56 52.13645  -66 37 54.61763   -19.7109   6   7   0.0628   0.0598   0.1743  -0.0302   0.0739  -0.0509   0.00    0.0
2334 495971.0   45 56 52.13663  -66 37 54.61749   -19.7106   6   7   0.0633   0.0603   0.1760  -0.0305   0.0746  -0.0513   0.00    0.0
2334 495972.0   45 56 52.13668  -66 37 54.61728   -19.7117   6   7   0.0638   0.0608   0.1777  -0.0308   0.0753  -0.0517   0.00    0.0
2334 495973.0   45 56 52.13670  -66 37 54.61712   -19.7104   6   7   0.0644   0.0614   0.1795  -0.0310   0.0760  -0.0520   0.00    0.0
2334 495974.0   45 56 52.13660  -66 37 54.61722   -19.7175   6   7   0.0649   0.0619   0.1812  -0.0313   0.0767  -0.0524   0.00    0.0
2334 495975.0   45 56 52.13655  -66 37 54.61705   -19.7218   6   7   0.0654   0.0624   0.1829  -0.0316   0.0774  -0.0527   0.00    0.0
2334 495976.0   45 56 52.13657  -66 37 54.61692   -19.7277   6   7   0.0660   0.0629   0.1847  -0.0319   0.0781  -0.0531   0.00    0.0
2334 495977.0   45 56 52.13650  -66 37 54.61683   -19.7269   6   7   0.0665   0.0635   0.1864  -0.0321   0.0788  -0.0535   0.00    0.0
2334 495978.0   45 56 52.13659  -66 37 54.61684   -19.7392   6   7   0.0670   0.0640   0.1881  -0.0324   0.0795  -0.0538   0.00    0.0
2334 495979.0   45 56 52.13666  -66 37 54.61670   -19.7476   6   7   0.0676   0.0645   0.1898  -0.0327   0.0802  -0.0542   0.00    0.0
2334 495980.0   45 56 52.13679  -66 37 54.61660   -19.7515   6   7   0.0681   0.0651   0.1915  -0.0330   0.0808  -0.0545   0.00    0.0
2334 495981.0   45 56 52.13685  -66 37 54.61655   -19.7489   6   7   0.0687   0.0656   0.1932  -0.0333   0.0815  -0.0549   0.00    0.0
2334 495982.0   45 56 52.13677  -66 37 54.61644   -19.7502   6   7   0.0692   0.0661   0.1949  -0.0335   0.0822  -0.0553   0.00    0.0
2334 495983.0   45 56 52.13681  -66 37 54.61623   -19.7412   6   7   0.0697   0.0667   0.1966  -0.0338   0.0829  -0.0556   0.00    0.0
2334 495984.0   45 56 52.13687  -66 37 54.61606   -19.7445   6   7   0.0703   0.0672   0.1983  -0.0341   0.0836  -0.0560   0.00    0.0
2334 495985.0   45 56 52.13697  -66 37 54.61590   -19.7390   6   7   0.0708   0.0677   0.2000  -0.0344   0.0843  -0.0564   0.00    0.0
2334 495986.0   45 56 52.13703  -66 37 54.61601   -19.7455   6   7   0.0714   0.0683   0.2017  -0.0347   0.0850  -0.0567   0.00    0.0
2334 495987.0   45 56 52.13704  -66 37 54.61578   -19.7469   6   7   0.0719   0.0688   0.2034  -0.0349   0.0857  -0.0571   0.00    0.0
2334 495988.0   45 56 52.13710  -66 37 54.61574   -19.7493   6   7   0.0724   0.0693   0.2051  -0.0352   0.0863  -0.0575   0.00    0.0
2334 495989.0   45 56 52.13709  -66 37 54.61544   -19.7426   6   7   0.0730   0.0699   0.2068  -0.0355   0.0870  -0.0578   0.00    0.0
2334 495990.0   45 56 52.13721  -66 37 54.61548   -19.7508   6   7   0.0735   0.0704   0.2085  -0.0358   0.0877  -0.0582   0.00    0.0
2334 495991.0   45 56 52.13715  -66 37 54.61553   -19.7665   6   7   0.0741   0.0709   0.2102  -0.0361   0.0884  -0.0586   0.00    0.0
2334 495992.0   45 56 52.13729  -66 37 54.61562   -19.7791   6   7   0.0746   0.0715   0.2119  -0.0364   0.0891  -0.0589   0.00    0.0
2334 495993.0   45 56 52.13734  -66 37 54.61568   -19.7842   6   7   0.0751   0.0720   0.2135  -0.0366   0.0898  -0.0593   0.00    0.0
2334 495994.0   45 56 52.13738  -66 37 54.61539   -19.7784   6   7   0.0757   0.0726   0.2152  -0.0369   0.0905  -0.0597   0.00    0.0
2334 495995.0   45 56 52.13745  -66 37 54.61545   -19.7896   6   7   0.0762   0.0731   0.2169  -0.0372   0.0912  -0.0600   0.00    0.0
2334 495996.0   45 56 52.13738  -66 37 54.61533   -19.7950   6   7   0.0768   0.0736   0.2186  -0.0375   0.0919  -0.0604   0.00    0.0
2334 495997.0   45 56 52.13732  -66 37 54.61529   -19.7957   6   7   0.0773   0.0742   0.2202  -0.0378   0.0925  -0.0608   0.00    0.0
2334 495998.0   45 56 52.13749  -66 37 54.61531   -19.7961   6   7   0.0779   0.0747   0.2219  -0.0381   0.0932  -0.0611   0.00    0.0
2334 495999.0   45 56 52.13757  -66 37 54.61529   -19.8017   6   7   0.0784   0.0752   0.2236  -0.0384   0.0939  -0.0615   0.00    0.0
2334 496000.0   45 56 52.13764  -66 37 54.61517   -19.8009   6   7   0.0790   0.0758   0.2252  -0.0387   0.0946  -0.0619   0.00    0.0
2334 496001.0   45 56 52.13775  -66 37 54.61502   -19.8015   6   7   0.0795   0.0763   0.2269  -0.0390   0.0953  -0.0622   0.00    0.0
2334 496002.0   45 56 52.13777  -66 37 54.61516   -19.8126   6   7   0.0801   0.0769   0.2286  -0.0392   0.0960  -0.0626   0.00    0.0
2334 496003.0   45 56 52.13778  -66 37 54.61524   -19.8247   6   7   0.0806   0.0774   0.2302  -0.0395   0.0967  -0.0630   0.00    0.0
2334 496004.0   45 56 52.13792  -66 37 54.61507   -19.8158   6   7   0.0811   0.0780   0.2319  -0.0398   0.0974  -0.0633   0.00    0.0
2334 496005.0   45 56 52.13798  -66 37 54.61514   -19.8205   6   7   0.0817   0.0785   0.2335  -0.0401   0.0981  -0.0637   0.00    0.0
2334 496006.0   45 56 52.13795  -66 37 54.61526   -19.8370   6   7   0.0822   0.0791   0.2352  -0.0404   0.0988  -0.0640   0.00    0.0
2334 496007.0   45 56 52.13805  -66 37 54.61535   -19.8476   6   7   0.0828   0.0796   0.2368  -0.0407   0.0995  -0.0644   0.00    0.0
2334 496008.0   45 56 52.13827  -66 37 54.61534   -19.8460   6   7   0.0834   0.0801   0.2385  -0.0410   0.1002  -0.0648   0.00    0.0
2334 496009.0   45 56 52.13827  -66 37 54.61537   -19.8492   6   7   0.0839   0.0807   0.2401  -0.0413   0.1009  -0.0651   0.00    0.0
2334 496010.0   45 56 52.13825  -66 37 54.61520   -19.8526   6   7   0.0845   0.0812   0.2418  -0.0416   0.1016  -0.0655   0.00    0.0
2334 496011.0   45 56 52.13833  -66 37 54.61538   -19.8675   6   7   0.0850   0.0818   0.2434  -0.0419   0.1023  -0.0659   0.00    0.0
2334 496012.0   45 56 52.13824  -66 37 54.61534   -19.8683   6   7   0.0856   0.0823   0.2451  -0.0422   0.1030  -0.0662   0.00    0.0
2334 496013.0   45 56 52.13820  -66 37 54.61538   -19.8756   6   7   0.0861   0.0829   0.2467  -0.0425   0.1037  -0.0666   0.00    0.0
2334 496014.0   45 56 52.13814  -66 37 54.61525   -19.8691   6   7   0.0867   0.0834   0.2484  -0.0428   0.1044  -0.0670   0.00    0.0
2334 496015.0   45 56 52.13794  -66 37 54.61536   -19.8785   6   7   0.0872   0.0840   0.2500  -0.0431   0.1051  -0.0673   0.00    0.0
2334 496016.0   45 56 52.13800  -66 37 54.61544   -19.8784   6   7   0.0878   0.0845   0.2517  -0.0434   0.1058  -0.0677   0.00    0.0
2334 496017.0   45 56 52.13806  -66 37 54.61523   -19.8757   6   7   0.0883   0.0851   0.2533  -0.0437   0.1065  -0.0680   0.00    0.0
2334 496018.0   45 56 52.13811  -66 37 54.61529   -19.8797   6   7   0.0889   0.0856   0.2549  -0.0440   0.1072  -0.0684   0.00    0.0
2334 496019.0   45 56 52.13797  -66 37 54.61518   -19.8788   6   7   0.0894   0.0862   0.2566  -0.0443   0.1079  -0.0688   0.00    0.0
2334 496020.0   45 56 52.13819  -66 37 54.61541   -19.8878   6   7   0.0900   0.0868   0.2582  -0.0446   0.1086  -0.0691   0.00    0.0
2334 496021.0   45 56 52.13819  -66 37 54.61553   -19.9007   6   7   0.0906   0.0873   0.2599  -0.0449   0.1093  -0.0695   0.00    0.0
2334 496022.0   45 56 52.13835  -66 37 54.61539   -19.9036   6   7   0.0911   0.0879   0.2615  -0.0452   0.1100  -0.0698   0.00    0.0
2334 496023.0   45 56 52.13834  -66 37 54.61571   -19.9229   6   7   0.0917   0.0884   0.2631  -0.0455   0.1107  -0.0702   0.00    0.0
2334 496024.0   45 56 52.13843  -66 37 54.61587   -19.9318   6   7   0.0922   0.0890   0.2648  -0.0458   0.1114  -0.0706   0.00    0.0
2334 496025.0   45 56 52.13843  -66 37 54.61597   -19.9376   6   7   0.0928   0.0895   0.2664  -0.0461   0.1121  -0.0709   0.00    0.0
2334 496026.0   45 56 52.13841  -66 37 54.61586   -19.9289   6   7   0.0934   0.0901   0.2680  -0.0464   0.1128  -0.0713   0.00    0.0
2334 496027.0   45 56 52.13846  -66 37 54.61581   -19.9282   6   7   0.0939   0.0907   0.2697  -0.0467   0.1135  -0.0716   0.00    0.0
2334 496028.0   45 56 52.13845  -66 37 54.61601   -19.9309   6   7   0.0945   0.0912   0.2713  -0.0470   0.1142  -0.0720   0.00    0.0
2334 496029.0   45 56 52.13855  -66 37 54.61593   -19.9375   6   7   0.0950   0.0918   0.2729  -0.0473   0.1150  -0.0723   0.00    0.0
2334 496030.0   45 56 52.13859  -66 37 54.61609   -19.9422   6   7   0.0956   0.0923   0.2746  -0.0476   0.1157  -0.0727   0.00    0.0
2334 496031.0   45 56 52.13861  -66 37 54.61629   -19.9469   6   7   0.0962   0.0929   0.2762  -0.0479   0.1164  -0.0731   0.00    0.0
2334 496032.0   45 56 52.13867  -66 37 54.61626   -19.9609   6   7   0.0967   0.0935   0.2778  -0.0482   0.1171  -0.0734   0.00    0.0
2334 496033.0   45 56 52.13853  -66 37 54.61624   -19.9644   6   7   0.0973   0.0940   0.2795  -0.0485   0.1178  -0.0738   0.00    0.0
2334 496034.0   45 56 52.13855  -66 37 54.61632   -19.9696   6   7   0.0979   0.0946   0.2811  -0.0488   0.1185  -0.0741   0.00    0.0
2334 496035.0   45 56 52.13849  -66 37 54.61625   -19.9675   6   7   0.0984   0.0952   0.2827  -0.0491   0.1192  -0.0745   0.00    0.0
2334 496036.0   45 56 52.13855  -66 37 54.61626   -19.9609   6   7   0.0990   0.0957   0.2844  -0.0494   0.1200  -0.0748   0.00    0.0
2334 496037.0   45 56 52.13841  -66 37 54.61629   -19.9604   6   7   0.0996   0.0963   0.2860  -0.0497   0.1207  -0.0752   0.00    0.0
2334 496038.0   45 56 52.13838  -66 37 54.61633   -19.9679   6   7   0.1001   0.0969   0.2876  -0.0500   0.1214  -0.0755   0.00    0.0
2334 496039.0   45 56 52.13830  -66 37 54.61617   -19.9701   6   7   0.1007   0.0974   0.2893  -0.0504   0.1221  -0.0759   0.00    0.0
2334 496040.0   45 56 52.13848  -66 37 54.61640   -19.9796   6   7   0.1013   0.0980   0.2909  -0.0507   0.1228  -0.0763   0.00    0.0
2334 496041.0   45 56 52.13853  -66 37 54.61654   -19.9922   6   7   0.1018   0.0986   0.2925  -0.0510   0.1235  -0.0766   0.00    0.0
2334 496042.0   45 56 52.13849  -66 37 54.61656   -19.9966   6   7   0.1024   0.0991   0.2941  -0.0513   0.1243  -0.0770   0.00    0.0
2334 496043.0   45 56 52.13865  -66 37 54.61639   -19.9932   6   7   0.1030   0.0997   0.2958  -0.0516   0.1250  -0.0773   0.00    0.0
2334 496044.0   45 56 52.13866  -66 37 54.61636   -19.9960   6   7   0.1035   0.1003   0.2974  -0.0519   0.1257  -0.0777   0.00    0.0
2334 496045.0   45 56 52.13861  -66 37 54.61642   -20.0002   6   7   0.1041   0.1009   0.2990  -0.0522   0.1264  -0.0780   0.00    0.0
2334 496046.0   45 56 52.13870  -66 37 54.61628   -19.9931   6   7   0.1047   0.1014   0.3007  -0.0525   0.1272  -0.0784   0.00    0.0
2334 496047.0   45 56 52.13871  -66 37 54.61589   -19.9851   6   7   0.1052   0.1020   0.3023  -0.0528   0.1279  -0.0787   0.00    0.0
2334 496048.0   45 56 52.13871  -66 37 54.61597   -19.9859   6   7   0.1058   0.1026   0.3039  -0.0531   0.1286  -0.0791   0.00    0.0
2334 496049.0   45 56 52.13871  -66 37 54.61611   -19.9927   6   7   0.1064   0.1031   0.3055  -0.0534   0.1293  -0.0794   0.00    0.0
2334 496050.0   45 56 52.13885  -66 37 54.61627   -19.9977   6   7   0.1070   0.1037   0.3072  -0.0538   0.1301  -0.0798   0.00    0.0
2334 496051.0   45 56 52.13888  -66 37 54.61632   -19.9997   6   7   0.1075   0.1043   0.3088  -0.0541   0.1308  -0.0801   0.00    0.0
2334 496052.0   45 56 52.13883  -66 37 54.61612   -19.9901   6   7   0.1081   0.1049   0.3104  -0.0544   0.1315  -0.0805   0.00    0.0
2334 496053.0   45 56 52.13871  -66 37 54.61625   -20.0010   6   7   0.1087   0.1055   0.3121  -0.0547   0.1323  -0.0808   0.00    0.0
2334 496054.0   45 56 52.13875  -66 37 54.61630   -20.0065   6   7   0.1093   0.1060   0.3137  -0.0550   0.1330  -0.0812   0.00    0.0
2334 496055.0   45 56 52.13867  -66 37 54.61623   -20.0084   6   7   0.1098   0.1066   0.3153  -0.0553   0.1337  -0.0815   0.00    0.0
2334 496056.0   45 56 52.13872  -66 37 54.61599   -20.0026   6   7   0.1104   0.1072   0.3170  -0.0556   0.1344  -0.0819   0.00    0.0
2334 496057.0   45 56 52.13864  -66 37 54.61620   -20.0162   6   7   0.1110   0.1078   0.3186  -0.0559   0.1352  -0.0822   0.00    0.0
2334 496058.0   45 56 52.13866  -66 37 54.61623   -20.0179   6   7   0.1116   0.1083   0.3202  -0.0563   0.1359  -0.0826   0.00    0.0
2334 496059.0   45 56 52.13845  -66 37 54.61616   -20.0190   6   7   0.1121   0.1089   0.3218  -0.0566   0.1366  -0.0829   0.00    0.0
2334 496060.0   45 56 52.13846  -66 37 54.61626   -20.0221   6   7   0.1127   0.1095   0.3235  -0.0569   0.1374  -0.0833   0.00    0.0
2334 496061.0   45 56 52.13825  -66 37 54.61617   -20.0216   6   7   0.1133   0.1101   0.3251  -0.0572   0.1381  -0.0836   0.00    0.0
2334 496062.0   45 56 52.13834  -66 37 54.61622   -20.0299   6   7   0.1139   0.1107   0.3267  -0.0575   0.1388  -0.0840   0.00    0.0
2334 496063.0   45 56 52.13822  -66 37 54.61613   -20.0343   6   7   0.1144   0.1113   0.3284  -0.0578   0.1396  -0.0843   0.00    0.0
2334 496064.0   45 56 52.13820  -66 37 54.61609   -20.0376   6   7   0.1150   0.1118   0.3300  -0.0581   0.1403  -0.0847   0.00    0.0
2334 496065.0   45 56 52.13837  -66 37 54.61629   -20.0348   6   7   0.1156   0.1124   0.3316  -0.0584   0.1411  -0.0850   0.00    0.0
2334 496066.0   45 56 52.13844  -66 37 54.61644   -20.0409   6   7   0.1162   0.1130   0.3333  -0.0588   0.1418  -0.0854   0.00    0.0
2334 496067.0   45 56 52.13863  -66 37 54.61654   -20.0514   6   7   0.1168   0.1136   0.3349  -0.0591   0.1425  -0.0857   0.00    0.0
2334 496068.0   45 56 52.13861  -66 37 54.61680   -20.0669   6   7   0.1173   0.1142   0.3365  -0.0594   0.1433  -0.0861   0.00    0.0
2334 496069.0   45 56 52.13867  -66 37 54.61679   -20.0685   6   7   0.1179   0.1148   0.3382  -0.0597   0.1440  -0.0864   0.00    0.0
2334 496070.0   45 56 52.13881  -66 37 54.61688   -20.0789   6   7   0.1185   0.1154   0.3398  -0.0600   0.1448  -0.0867   0.00    0.0
2334 496071.0   45 56 52.13888  -66 37 54.61675   -20.0771   6   7   0.1191   0.1159   0.3414  -0.0603   0.1455  -0.0871   0.00    0.0
2334 496072.0   45 56 52.13889  -66 37 54.61701   -20.0872   6   7   0.1197   0.1165   0.3431  -0.0607   0.1462  -0.0874   0.00    0.0
2334 496073.0   45 56 52.13900  -66 37 54.61718   -20.1113   6   7   0.1202   0.1171   0.3447  -0.0610   0.1470  -0.0878   0.00    0.0
2334 496074.0   45 56 52.13904  -66 37 54.61720   -20.1291   6   7   0.1208   0.1177   0.3463  -0.0613   0.1477  -0.0881   0.00    0.0
2334 496075.0   45 56 52.13908  -66 37 54.61718   -20.1249   6   7   0.1214   0.1183   0.3480  -0.0616   0.1485  -0.0885   0.00    0.0
2334 496076.0   45 56 52.13934  -66 37 54.61765   -20.1464   6   7   0.1220   0.1189   0.3496  -0.0619   0.1492  -0.0888   0.00    0.0
2334 496077.0   45 56 52.13965  -66 37 54.61800   -20.1598   6   7   0.1226   0.1195   0.3512  -0.0622   0.1500  -0.0892   0.00    0.0
2334 496078.0   45 56 52.13974  -66 37 54.61831   -20.1731   6   7   0.1232   0.1201   0.3529  -0.0626   0.1507  -0.0895   0.00    0.0
2334 496079.0   45 56 52.13965  -66 37 54.61823   -20.1752   6   7   0.1237   0.1207   0.3545  -0.0629   0.1514  -0.0899   0.00    0.0
2334 496080.0   45 56 52.13962  -66 37 54.61840   -20.1884   6   7   0.1243   0.1213   0.3561  -0.0632   0.1522  -0.0902   0.00    0.0
2334 496081.0   45 56 52.13973  -66 37 54.61856   -20.1931   6   7   0.1249   0.1218   0.3578  -0.0635   0.1529  -0.0905   0.00    0.0
2334 496082.0   45 56 52.13976  -66 37 54.61850   -20.2043   6   7   0.1255   0.1224   0.3594  -0.0638   0.1537  -0.0909   0.00    0.0
2334 496083.0   45 56 52.13965  -66 37 54.61851   -20.2104   6   7   0.1261   0.1230   0.3610  -0.0641   0.1544  -0.0912   0.00    0.0
2334 496084.0   45 56 52.13972  -66 37 54.61848   -20.2182   6   7   0.1267   0.1236   0.3627  -0.0645   0.1552  -0.0916   0.00    0.0
2334 496085.0   45 56 52.13976  -66 37 54.61841   -20.2317   6   7   0.1272   0.1242   0.3643  -0.0648   0.1559  -0.0919   0.00    0.0
2334 496086.0   45 56 52.13974  -66 37 54.61843   -20.2426   6   7   0.1278   0.1248   0.3659  -0.0651   0.1567  -0.0923   0.00    0.0
2334 496087.0   45 56 52.13976  -66 37 54.61861   -20.2550   6   7   0.1284   0.1254   0.3676  -0.0654   0.1574  -0.0926   0.00    0.0
2334 496088.0   45 56 52.13978  -66 37 54.61839   -20.2531   6   7   0.1290   0.1260   0.3692  -0.0657   0.1582  -0.0930   0.00    0.0
2334 496089.0   45 56 52.13995  -66 37 54.61884   -20.2698   6   7   0.1296   0.1266   0.3708  -0.0660   0.1589  -0.0933   0.00    0.0
2334 496090.0   45 56 52.13981  -66 37 54.61885   -20.2740   6   7   0.1302   0.1272   0.3725  -0.0664   0.1597  -0.0936   0.00    0.0
2334 496091.0   45 56 52.13979  -66 37 54.61906   -20.2838   6   7   0.1308   0.1278   0.3741  -0.0667   0.1604  -0.0940   0.00    0.0
2334 496092.0   45 56 52.13987  -66 37 54.61934   -20.2927   6   7   0.1314   0.1284   0.3758  -0.0670   0.1612  -0.0943   0.00    0.0
2334 496093.0   45 56 52.14003  -66 37 54.61939   -20.3025   6   7   0.1319   0.1290   0.3774  -0.0673   0.1620  -0.0947   0.00    0.0
2334 496094.0   45 56 52.14014  -66 37 54.61947   -20.3051   6   7   0.1325   0.1296   0.3790  -0.0676   0.1627  -0.0950   0.00    0.0
2334 496095.0   45 56 52.14016  -66 37 54.61959   -20.3094   6   7   0.1331   0.1302   0.3807  -0.0680   0.1635  -0.0953   0.00    0.0
2334 496096.0   45 56 52.14026  -66 37 54.61961   -20.3178   6   7   0.1337   0.1308   0.3823  -0.0683   0.1642  -0.0957   0.00    0.0
2334 496097.0   45 56 52.14029  -66 37 54.62005   -20.3349   6   7   0.1343   0.1314   0.3839  -0.0686   0.1650  -0.0960   0.00    0.0
2334 496098.0   45 56 52.14029  -66 37 54.62010   -20.3342   6   7   0.1349   0.1320   0.3856  -0.0689   0.1657  -0.0964   0.00    0.0
2334 496099.0   45 56 52.14026  -66 37 54.62009   -20.3386   6   7   0.1355   0.1326   0.3872  -0.0692   0.1665  -0.0967   0.00    0.0
2334 496100.0   45 56 52.14008  -66 37 54.62018   -20.3513   6   7   0.1361   0.1332   0.3889  -0.0696   0.1672  -0.0971   0.00    0.0
2334 496101.0   45 56 52.14021  -66 37 54.62036   -20.3439   6   7   0.1367   0.1338   0.3905  -0.0699   0.1680  -0.0974   0.00    0.0
2334 496102.0   45 56 52.14022  -66 37 54.62062   -20.3551   6   7   0.1372   0.1344   0.3921  -0.0702   0.1688  -0.0977   0.00    0.0
2334 496103.0   45 56 52.14031  -66 37 54.62087   -20.3659   6   7   0.1378   0.1350   0.3938  -0.0705   0.1695  -0.0981   0.00    0.0
2334 496104.0   45 56 52.14022  -66 37 54.62086   -20.3703   6   7   0.1384   0.1356   0.3954  -0.0708   0.1703  -0.0984   0.00    0.0
2334 496105.0   45 56 52.14011  -66 37 54.62097   -20.3828   6   7   0.1390   0.1362   0.3971  -0.0712   0.1710  -0.0988   0.00    0.0
2334 496106.0   45 56 52.14018  -66 37 54.62132   -20.3995   6   7   0.1396   0.1368   0.3987  -0.0715   0.1718  -0.0991   0.00    0.0
2334 496107.0   45 56 52.14001  -66 37 54.62125   -20.4080   6   7   0.1402   0.1374   0.4003  -0.0718   0.1726  -0.0994   0.00    0.0
2334 496108.0   45 56 52.13994  -66 37 54.62131   -20.4104   6   7   0.1408   0.1380   0.4020  -0.0721   0.1733  -0.0998   0.00    0.0
2334 496109.0   45 56 52.13986  -66 37 54.62120   -20.4137   6   7   0.1414   0.1386   0.4036  -0.0724   0.1741  -0.1001   0.00    0.0
2334 496110.0   45 56 52.13977  -66 37 54.62137   -20.4197   6   7   0.1420   0.1392   0.4053  -0.0728   0.1748  -0.1005   0.00    0.0
2334 496111.0   45 56 52.13960  -66 37 54.62130   -20.4062   6   7   0.1426   0.1398   0.4069  -0.0731   0.1756  -0.1008   0.00    0.0
2334 496112.0   45 56 52.13965  -66 37 54.62175   -20.4287   6   7   0.1432   0.1404   0.4086  -0.0734   0.1764  -0.1011   0.00    0.0
2334 496113.0   45 56 52.13963  -66 37 54.62192   -20.4331   6   7   0.1438   0.1410   0.4102  -0.0737   0.1771  -0.1015   0.00    0.0
2334 496114.0   45 56 52.13973  -66 37 54.62211   -20.4372   6   7   0.1444   0.1416   0.4118  -0.0740   0.1779  -0.1018   0.00    0.0
2334 496115.0   45 56 52.13993  -66 37 54.62229   -20.4481   6   7   0.1449   0.1423   0.4135  -0.0744   0.1787  -0.1022   0.00    0.0
2334 496116.0   45 56 52.14006  -66 37 54.62286   -20.4701   6   7   0.1455   0.1429   0.4151  -0.0747   0.1794  -0.1025   0.00    0.0
2334 496117.0   45 56 52.13974  -66 37 54.62294   -20.4823   6   7   0.1461   0.1435   0.4168  -0.0750   0.1802  -0.1028   0.00    0.0
2334 496118.0   45 56 52.13970  -66 37 54.62258   -20.4728   6   7   0.1467   0.1441   0.4184  -0.0753   0.1810  -0.1032   0.00    0.0
2334 496119.0   45 56 52.13969  -66 37 54.62293   -20.4852   6   7   0.1473   0.1447   0.4200  -0.0757   0.1817  -0.1035   0.00    0.0
2334 496120.0   45 56 52.13993  -66 37 54.62286   -20.4955   6   7   0.1479   0.1453   0.4217  -0.0760   0.1825  -0.1038   0.00    0.0
2334 496121.0   45 56 52.13995  -66 37 54.62308   -20.5100   6   7   0.1485   0.1459   0.4233  -0.0763   0.1833  -0.1042   0.00    0.0
2334 496122.0   45 56 52.14001  -66 37 54.62324   -20.5113   6   7   0.1491   0.1465   0.4250  -0.0766   0.1840  -0.1045   0.00    0.0
2334 496123.0   45 56 52.14014  -66 37 54.62313   -20.5007   6   7   0.1497   0.1471   0.4266  -0.0769   0.1848  -0.1049   0.00    0.0
2334 496124.0   45 56 52.14017  -66 37 54.62280   -20.4782   6   7   0.1503   0.1477   0.4283  -0.0773   0.1856  -0.1052   0.00    0.0
2334 496125.0   45 56 52.14020  -66 37 54.62307   -20.4854   6   7   0.1509   0.1483   0.4299  -0.0776   0.1863  -0.1055   0.00    0.0
2334 496126.0   45 56 52.14010  -66 37 54.62335   -20.4916   6   7   0.1515   0.1489   0.4316  -0.0779   0.1871  -0.1059   0.00    0.0
2334 496127.0   45 56 52.14033  -66 37 54.62377   -20.4999   6   7   0.1521   0.1496   0.4332  -0.0782   0.1879  -0.1062   0.00    0.0
2334 496128.0   45 56 52.14025  -66 37 54.62388   -20.4909   6   7   0.1527   0.1502   0.4348  -0.0786   0.1886  -0.1065   0.00    0.0
2334 496129.0   45 56 52.14020  -66 37 54.62384   -20.4896   6   7   0.1533   0.1508   0.4365  -0.0789   0.1894  -0.1069   0.00    0.0
2334 496130.0   45 56 52.13990  -66 37 54.62372   -20.4910   6   7   0.1539   0.1514   0.4381  -0.0792   0.1902  -0.1072   0.00    0.0
2334 496131.0   45 56 52.13984  -66 37 54.62345   -20.4828   6   7   0.1545   0.1520   0.4398  -0.0795   0.1909  -0.1076   0.00    0.0
2334 496132.0   45 56 52.13998  -66 37 54.62323   -20.4788   6   7   0.1551   0.1526   0.4414  -0.0798   0.1917  -0.1079   0.00    0.0
2334 496133.0   45 56 52.14009  -66 37 54.62366   -20.4956   6   7   0.1556   0.1532   0.4431  -0.0802   0.1925  -0.1082   0.00    0.0
2334 496134.0   45 56 52.13980  -66 37 54.62331   -20.4824   6   7   0.1562   0.1538   0.4447  -0.0805   0.1933  -0.1086   0.00    0.0
2334 496135.0   45 56 52.13967  -66 37 54.62287   -20.4591   6   7   0.1568   0.1545   0.4464  -0.0808   0.1940  -0.1089   0.00    0.0
2334 496136.0   45 56 52.13944  -66 37 54.62274   -20.4623   6   7   0.1574   0.1551   0.4480  -0.0811   0.1948  -0.1092   0.00    0.0
2334 496137.0   45 56 52.13916  -66 37 54.62295   -20.4778   6   7   0.1580   0.1557   0.4496  -0.0815   0.1956  -0.1096   0.00    0.0
2334 496138.0   45 56 52.13916  -66 37 54.62278   -20.4817   6   7   0.1586   0.1563   0.4513  -0.0818   0.1963  -0.1099   0.00    0.0
2334 496139.0   45 56 52.13925  -66 37 54.62302   -20.4983   6   7   0.1592   0.1569   0.4529  -0.0821   0.1971  -0.1102   0.00    0.0
2334 496140.0   45 56 52.13955  -66 37 54.62347   -20.5207   6   7   0.1598   0.1575   0.4546  -0.0824   0.1979  -0.1106   0.00    0.0
2334 496141.0   45 56 52.13972  -66 37 54.62389   -20.5255   6   7   0.1604   0.1581   0.4562  -0.0828   0.1987  -0.1109   0.00    0.0
2334 496142.0   45 56 52.13961  -66 37 54.62394   -20.5254   6   7   0.1610   0.1587   0.4579  -0.0831   0.1994  -0.1112   0.00    0.0
2334 496143.0   45 56 52.13951  -66 37 54.62399   -20.5103   6   7   0.1616   0.1594   0.4595  -0.0834   0.2002  -0.1116   0.00    0.0
2334 496144.0   45 56 52.13968  -66 37 54.62400   -20.5192   6   7   0.1622   0.1600   0.4612  -0.0837   0.2010  -0.1119   0.00    0.0
2334 496145.0   45 56 52.13949  -66 37 54.62349   -20.4995   6   7   0.1628   0.1606   0.4628  -0.0840   0.2018  -0.1122   0.00    0.0
