Date,Time(UTC-3),Latitude,Longitude,Altitude (m),Vn (m/s),Ve (m/s),Vd (m/s),Vf (m/s), Vl (m/s),Speed (m/s),Ax,Ay,Az,Af,Al,Ad,Heading,Pitch,Roll,Wx,Wy,Wz,Wf,Wl,Wd,LatitudeAcc,LongitudeAcc,AltitudeAcc (m),VnAcc (m/s),VeAcc (m/s),VdAcc (m/s),PitchAcc,RollAcc,HeadingAcc,Online Heave Value (m),iHeave Date,iHeave Time (UTC-3),iHeave Value (m),
2024-10-04,14:47:06.580,45.94782385,-66.63181330,-18.799,-0.004,0.001,0.001,0.004,0.000,0.004,-0.631,0.508,-9.784,-0.003,0.004,-9.817,162.967,-3.667,-2.949,0.120,0.256,0.007,0.120,0.256,0.001,,,,0.037,0.037,0.019,,,,-0.004,,,,
2024-10-04,14:47:05.580,45.94782403,-66.63181334,-18.784,0.005,-0.002,0.001,-0.005,0.001,0.005,-0.628,0.503,-9.765,-0.002,-0.000,-9.798,162.965,-3.660,-2.950,-0.254,-0.075,-0.150,-0.244,-0.083,-0.162,0.402,0.403,0.731,0.037,0.037,0.019,0.092,0.093,0.214,-0.004,,,,
2024-10-04,14:47:06.580,45.94782393,-66.63181313,-18.737,0.002,0.001,0.000,-0.002,-0.002,0.002,-0.634,0.507,-9.789,-0.004,0.001,-9.822,162.979,-3.675,-2.956,0.115,0.469,-0.093,0.122,0.464,-0.109,0.402,0.403,0.731,0.037,0.037,0.019,0.092,0.093,0.214,-0.002,,,,
2024-10-04,14:47:07.580,45.94782379,-66.63181290,-18.678,-0.005,0.007,0.000,0.007,-0.005,0.009,-0.620,0.504,-9.763,0.011,-0.000,-9.796,162.960,-3.688,-2.959,0.133,-0.350,0.027,0.130,-0.348,0.053,0.402,0.403,0.731,0.037,0.037,0.019,0.091,0.092,0.214,-0.002,,,,
2024-10-04,14:47:08.580,45.94782380,-66.63181284,-18.660,-0.006,0.008,0.000,0.008,-0.005,0.010,-0.623,0.494,-9.768,0.005,-0.010,-9.800,162.907,-3.677,-2.953,-0.320,0.060,0.156,-0.329,0.068,0.132,0.402,0.403,0.731,0.037,0.037,0.019,0.091,0.092,0.214,0.000,,,,
2024-10-04,14:47:09.580,45.94782393,-66.63181292,-18.665,0.000,0.002,-0.000,0.000,-0.002,0.002,-0.628,0.509,-9.786,-0.001,0.005,-9.819,162.852,-3.661,-2.947,0.207,0.292,0.060,0.204,0.295,0.058,0.402,0.403,0.731,0.037,0.037,0.019,0.091,0.092,0.214,0.002,,,,
2024-10-04,14:47:10.580,45.94782409,-66.63181298,-18.656,0.007,-0.002,-0.000,-0.008,0.000,0.008,-0.627,0.499,-9.773,-0.001,-0.004,-9.806,162.819,-3.657,-2.945,-0.033,0.133,0.030,-0.034,0.135,0.021,0.402,0.403,0.731,0.037,0.037,0.019,0.091,0.092,0.214,0.004,,,,
2024-10-04,14:47:11.580,45.94782405,-66.63181311,-18.628,0.005,-0.008,-0.000,-0.007,0.006,0.009,-0.619,0.504,-9.761,0.009,0.004,-9.793,162.750,-3.673,-2.932,0.108,-0.227,-0.057,0.110,-0.230,-0.038,0.402,0.403,0.731,0.037,0.037,0.019,0.091,0.092,0.214,0.006,,,,
2024-10-04,14:47:12.580,45.94782400,-66.63181330,-18.633,-0.000,-0.013,-0.000,-0.004,0.013,0.013,-0.631,0.514,-9.771,-0.002,0.014,-9.805,162.737,-3.678,-2.928,0.104,-0.200,-0.183,0.115,-0.209,-0.166,0.402,0.403,0.731,0.037,0.037,0.019,0.091,0.092,0.214,0.006,,,,
2024-10-04,14:47:13.580,45.94782398,-66.63181325,-18.600,-0.003,-0.012,-0.001,-0.000,0.012,0.012,-0.629,0.509,-9.780,0.001,0.008,-9.813,162.742,-3.682,-2.932,0.329,-0.037,-0.166,0.339,-0.045,-0.143,0.402,0.403,0.731,0.037,0.037,0.019,0.090,0.091,0.214,0.008,,,,
2024-10-04,14:47:14.580,45.94782403,-66.63181330,-18.596,-0.003,-0.011,-0.001,-0.000,0.011,0.011,-0.637,0.510,-9.785,-0.006,0.009,-9.818,162.724,-3.683,-2.932,-0.025,0.113,-0.125,-0.017,0.107,-0.132,0.402,0.403,0.731,0.037,0.037,0.019,0.091,0.091,0.213,0.010,,,,
2024-10-04,14:47:15.580,45.94782413,-66.63181331,-18.592,-0.002,-0.010,-0.001,-0.002,0.010,0.010,-0.630,0.510,-9.783,-0.000,0.009,-9.817,162.700,-3.679,-2.934,0.270,0.033,-0.108,0.276,0.028,-0.092,0.402,0.403,0.730,0.037,0.037,0.019,0.090,0.091,0.213,0.010,,,,
2024-10-04,14:47:16.580,45.94782433,-66.63181324,-18.581,0.005,-0.008,-0.001,-0.007,0.006,0.009,-0.633,0.510,-9.780,-0.004,0.008,-9.813,162.673,-3.671,-2.937,0.293,-0.040,-0.236,0.308,-0.052,-0.214,0.402,0.403,0.730,0.037,0.037,0.019,0.089,0.091,0.212,0.012,,,,
2024-10-04,14:47:17.580,45.94782440,-66.63181326,-18.562,0.006,-0.007,-0.001,-0.008,0.005,0.009,-0.619,0.506,-9.773,0.009,0.005,-9.805,162.649,-3.674,-2.935,0.220,-0.124,0.260,0.203,-0.111,0.279,0.402,0.403,0.730,0.036,0.037,0.019,0.089,0.091,0.212,0.014,,,,
2024-10-04,14:47:18.580,45.94782435,-66.63181331,-18.546,0.000,-0.009,-0.001,-0.003,0.008,0.009,-0.627,0.507,-9.763,0.003,0.008,-9.796,162.637,-3.686,-2.928,0.078,-0.247,-0.114,0.085,-0.252,-0.096,0.402,0.403,0.730,0.037,0.037,0.019,0.089,0.091,0.213,0.014,,,,
2024-10-04,14:47:19.580,45.94782437,-66.63181342,-18.527,-0.003,-0.011,-0.001,-0.001,0.012,0.012,-0.629,0.510,-9.785,0.001,0.010,-9.818,162.643,-3.679,-2.925,0.055,0.135,0.074,0.051,0.138,0.070,0.402,0.403,0.730,0.037,0.037,0.019,0.089,0.090,0.213,0.016,,,,
2024-10-04,14:47:20.580,45.94782434,-66.63181345,-18.510,-0.005,-0.012,-0.001,0.001,0.013,0.013,-0.626,0.505,-9.769,0.004,0.005,-9.802,162.642,-3.687,-2.927,-0.336,0.039,0.038,-0.337,0.041,0.015,0.402,0.403,0.730,0.037,0.037,0.019,0.089,0.091,0.213,0.016,,,,
2024-10-04,14:47:21.580,45.94782432,-66.63181351,-18.497,-0.008,-0.012,-0.001,0.004,0.014,0.014,-0.623,0.502,-9.757,0.007,0.003,-9.790,162.652,-3.688,-2.928,-0.357,-0.239,-0.095,-0.351,-0.243,-0.105,0.402,0.403,0.730,0.037,0.037,0.019,0.089,0.090,0.212,0.016,,,,
2024-10-04,14:47:22.580,45.94782428,-66.63181342,-18.476,-0.010,-0.008,-0.001,0.007,0.011,0.013,-0.625,0.501,-9.777,0.006,-0.000,-9.810,162.638,-3.687,-2.936,-0.093,0.208,0.289,-0.111,0.223,0.271,0.402,0.403,0.730,0.036,0.037,0.019,0.089,0.089,0.212,0.018,,,,
2024-10-04,14:47:23.580,45.94782428,-66.63181342,-18.462,-0.010,-0.006,-0.001,0.008,0.009,0.012,-0.626,0.507,-9.758,0.003,0.006,-9.791,162.632,-3.686,-2.937,-0.178,-0.295,-0.184,-0.167,-0.304,-0.180,0.402,0.403,0.730,0.036,0.037,0.019,0.088,0.089,0.212,0.018,,,,
2024-10-04,14:47:24.580,45.94782432,-66.63181347,-18.452,-0.008,-0.006,-0.001,0.005,0.008,0.010,-0.635,0.503,-9.781,-0.006,0.001,-9.815,162.641,-3.678,-2.938,-0.013,0.102,-0.038,-0.010,0.100,-0.044,0.402,0.403,0.730,0.037,0.037,0.019,0.088,0.089,0.212,0.018,,,,
2024-10-04,14:47:25.580,45.94782427,-66.63181349,-18.437,-0.008,-0.006,-0.001,0.006,0.008,0.010,-0.622,0.498,-9.761,0.007,-0.003,-9.793,162.667,-3.682,-2.940,-0.228,-0.044,0.179,-0.239,-0.035,0.166,0.402,0.403,0.729,0.036,0.037,0.019,0.088,0.089,0.211,0.020,,,,
2024-10-04,14:47:26.580,45.94782433,-66.63181351,-18.431,-0.006,-0.005,-0.002,0.004,0.006,0.008,-0.625,0.503,-9.764,0.003,0.000,-9.797,162.679,-3.675,-2.948,-0.144,-0.167,0.117,-0.152,-0.160,0.116,0.402,0.403,0.729,0.036,0.037,0.019,0.088,0.089,0.211,0.020,,,,
2024-10-04,14:47:27.580,45.94782444,-66.63181350,-18.430,-0.001,-0.003,-0.002,-0.000,0.003,0.003,-0.628,0.505,-9.777,-0.001,0.000,-9.810,162.694,-3.665,-2.956,0.015,0.049,-0.006,0.016,0.048,-0.007,0.402,0.403,0.729,0.036,0.037,0.019,0.088,0.089,0.211,0.020,,,,
2024-10-04,14:47:28.580,45.94782455,-66.63181355,-18.422,0.006,-0.001,-0.002,-0.006,-0.000,0.006,-0.627,0.505,-9.783,-0.000,-0.001,-9.816,162.720,-3.659,-2.959,0.017,0.133,0.088,0.011,0.137,0.082,0.402,0.403,0.729,0.036,0.037,0.019,0.088,0.089,0.211,0.020,,,,
2024-10-04,14:47:29.580,45.94782460,-66.63181359,-18.410,0.008,-0.001,-0.002,-0.008,-0.002,0.008,-0.631,0.514,-9.786,-0.004,0.008,-9.819,162.739,-3.659,-2.960,0.325,0.088,0.014,0.324,0.089,0.030,0.402,0.403,0.729,0.036,0.036,0.019,0.087,0.088,0.211,0.020,,,,
2024-10-04,14:47:30.580,45.94782470,-66.63181379,-18.422,0.010,-0.004,-0.002,-0.011,0.000,0.011,-0.630,0.511,-9.780,-0.004,0.007,-9.813,162.749,-3.659,-2.952,0.319,-0.101,-0.182,0.330,-0.111,-0.155,0.402,0.403,0.729,0.036,0.037,0.019,0.088,0.088,0.211,0.020,,,,
2024-10-04,14:47:31.580,45.94782476,-66.63181388,-18.424,0.011,-0.004,-0.001,-0.012,0.001,0.012,-0.626,0.503,-9.772,0.001,-0.002,-9.805,162.766,-3.665,-2.957,-0.131,0.012,-0.003,-0.130,0.012,-0.012,0.402,0.403,0.729,0.036,0.037,0.019,0.087,0.088,0.210,0.020,,,,
2024-10-04,14:47:32.580,45.94782469,-66.63181388,-18.402,0.006,-0.001,-0.001,-0.006,-0.000,0.006,-0.631,0.499,-9.772,-0.002,-0.006,-9.805,162.792,-3.682,-2.961,-0.423,-0.054,0.183,-0.434,-0.045,0.158,0.402,0.403,0.729,0.036,0.036,0.019,0.087,0.088,0.210,0.018,,,,
2024-10-04,14:47:33.580,45.94782469,-66.63181387,-18.399,0.002,0.002,-0.001,-0.001,-0.002,0.002,-0.630,0.500,-9.771,-0.001,-0.005,-9.804,162.816,-3.680,-2.958,-0.308,0.280,-0.257,-0.290,0.266,-0.290,0.402,0.403,0.729,0.036,0.037,0.019,0.087,0.088,0.210,0.018,,,,
2024-10-04,14:47:34.580,45.94782467,-66.63181396,-18.398,-0.002,0.001,-0.001,0.002,-0.000,0.002,-0.625,0.490,-9.754,0.004,-0.014,-9.786,162.839,-3.685,-2.954,-0.227,-0.165,-0.023,-0.225,-0.166,-0.030,0.402,0.403,0.729,0.036,0.036,0.019,0.087,0.088,0.210,0.018,,,,
2024-10-04,14:47:35.580,45.94782475,-66.63181392,-18.369,-0.001,0.004,-0.001,0.002,-0.003,0.004,-0.625,0.498,-9.784,0.006,-0.008,-9.817,162.861,-3.683,-2.963,-0.053,0.040,0.293,-0.071,0.055,0.287,0.402,0.403,0.729,0.036,0.037,0.019,0.087,0.088,0.210,0.016,,,,
2024-10-04,14:47:36.580,45.94782478,-66.63181383,-18.347,-0.001,0.007,-0.001,0.003,-0.007,0.007,-0.621,0.512,-9.777,0.010,0.006,-9.810,162.875,-3.688,-2.964,0.260,0.061,0.244,0.244,0.073,0.257,0.402,0.403,0.729,0.036,0.037,0.019,0.087,0.088,0.210,0.014,,,,
2024-10-04,14:47:37.580,45.94782473,-66.63181375,-18.337,-0.005,0.011,-0.001,0.008,-0.009,0.013,-0.628,0.499,-9.771,0.004,-0.007,-9.804,162.873,-3.696,-2.966,-0.238,0.047,-0.219,-0.224,0.036,-0.236,0.402,0.403,0.729,0.036,0.036,0.019,0.086,0.087,0.210,0.014,,,,
2024-10-04,14:47:38.580,45.94782464,-66.63181382,-18.324,-0.010,0.009,-0.001,0.013,-0.006,0.014,-0.628,0.514,-9.775,0.005,0.010,-9.808,162.886,-3.701,-2.955,0.054,-0.133,-0.081,0.059,-0.137,-0.071,0.402,0.403,0.729,0.036,0.037,0.019,0.086,0.087,0.210,0.012,,,,
2024-10-04,14:47:39.580,45.94782465,-66.63181377,-18.303,-0.011,0.009,-0.001,0.013,-0.006,0.014,-0.622,0.496,-9.766,0.009,-0.008,-9.798,162.936,-3.691,-2.957,-0.204,0.006,0.070,-0.208,0.009,0.056,0.402,0.403,0.728,0.036,0.036,0.019,0.086,0.087,0.209,0.010,,,,
2024-10-04,14:47:40.580,45.94782470,-66.63181389,-18.304,-0.008,0.006,-0.001,0.010,-0.003,0.010,-0.631,0.506,-9.769,-0.001,0.003,-9.802,162.982,-3.681,-2.949,-0.163,0.071,-0.238,-0.147,0.059,-0.251,0.402,0.403,0.728,0.036,0.036,0.019,0.085,0.087,0.209,0.010,,,,
2024-10-04,14:47:41.580,45.94782500,-66.63181391,-18.320,0.004,0.004,-0.001,-0.003,-0.005,0.006,-0.633,0.509,-9.797,-0.006,0.003,-9.830,163.020,-3.656,-2.956,0.254,0.336,-0.016,0.255,0.334,-0.017,0.402,0.403,0.728,0.036,0.036,0.019,0.085,0.087,0.209,0.008,,,,
2024-10-04,14:47:42.580,45.94782504,-66.63181399,-18.298,0.008,0.002,-0.001,-0.007,-0.004,0.008,-0.624,0.507,-9.769,0.002,0.004,-9.802,163.003,-3.665,-2.948,0.019,-0.176,-0.043,0.021,-0.178,-0.033,0.402,0.403,0.728,0.036,0.036,0.019,0.085,0.087,0.210,0.008,,,,
2024-10-04,14:47:43.580,45.94782505,-66.63181417,-18.296,0.006,-0.004,-0.001,-0.007,0.002,0.007,-0.627,0.499,-9.766,-0.000,-0.003,-9.799,162.973,-3.663,-2.941,-0.172,-0.258,-0.005,-0.172,-0.258,-0.003,0.402,0.403,0.728,0.036,0.036,0.019,0.085,0.086,0.209,0.006,,,,
2024-10-04,14:47:44.580,45.94782508,-66.63181427,-18.294,0.006,-0.007,-0.001,-0.008,0.005,0.010,-0.632,0.502,-9.779,-0.006,-0.001,-9.813,162.953,-3.656,-2.942,-0.121,0.030,0.019,-0.122,0.031,0.010,0.402,0.403,0.728,0.036,0.036,0.019,0.085,0.087,0.210,0.006,,,,
2024-10-04,14:47:45.580,45.94782514,-66.63181426,-18.292,0.008,-0.007,-0.001,-0.010,0.004,0.010,-0.627,0.506,-9.767,-0.002,0.004,-9.800,162.939,-3.655,-2.943,-0.151,-0.108,-0.221,-0.137,-0.119,-0.224,0.402,0.403,0.728,0.036,0.036,0.019,0.085,0.086,0.210,0.004,,,,
2024-10-04,14:47:46.580,45.94782520,-66.63181423,-18.290,0.009,-0.005,-0.001,-0.010,0.002,0.011,-0.625,0.501,-9.761,-0.001,-0.002,-9.794,162.938,-3.656,-2.947,-0.176,0.133,0.055,-0.179,0.136,0.037,0.402,0.403,0.728,0.036,0.036,0.019,0.085,0.086,0.209,0.002,,,,
2024-10-04,14:47:47.580,45.94782517,-66.63181412,-18.268,0.007,-0.002,-0.001,-0.007,-0.000,0.007,-0.629,0.515,-9.784,0.000,0.011,-9.818,162.923,-3.674,-2.952,-0.147,0.004,-0.002,-0.147,0.004,-0.011,0.402,0.403,0.728,0.036,0.036,0.019,0.084,0.085,0.209,0.002,,,,
2024-10-04,14:47:48.580,45.94782530,-66.63181408,-18.249,0.008,-0.000,-0.001,-0.008,-0.002,0.008,-0.619,0.512,-9.780,0.008,0.009,-9.812,162.904,-3.664,-2.948,0.164,0.040,0.096,0.158,0.044,0.104,0.402,0.403,0.728,0.036,0.036,0.019,0.084,0.085,0.209,0.000,,,,
2024-10-04,14:47:49.580,45.94782536,-66.63181420,-18.237,0.009,-0.003,-0.001,-0.009,0.001,0.009,-0.625,0.511,-9.792,0.003,0.008,-9.825,162.891,-3.669,-2.941,0.034,0.144,0.025,0.033,0.145,0.020,0.402,0.403,0.728,0.036,0.036,0.019,0.084,0.085,0.209,0.000,,,,
2024-10-04,14:47:50.580,45.94782542,-66.63181421,-18.221,0.008,-0.005,-0.001,-0.009,0.002,0.009,-0.621,0.507,-9.785,0.008,0.005,-9.818,162.878,-3.673,-2.941,0.254,0.084,0.375,0.230,0.103,0.386,0.402,0.403,0.728,0.036,0.036,0.019,0.084,0.085,0.209,-0.002,,,,
2024-10-04,14:47:51.580,45.94782541,-66.63181414,-18.195,0.005,-0.003,-0.001,-0.005,0.001,0.005,-0.632,0.510,-9.764,-0.003,0.008,-9.797,162.871,-3.681,-2.947,-0.225,-0.235,-0.322,-0.204,-0.252,-0.323,0.402,0.403,0.728,0.036,0.036,0.019,0.084,0.085,0.209,-0.002,,,,
2024-10-04,14:47:52.580,45.94782540,-66.63181409,-18.175,0.001,-0.001,-0.001,-0.001,0.000,0.001,-0.629,0.501,-9.782,0.002,-0.002,-9.815,162.857,-3.684,-2.947,-0.191,0.195,0.100,-0.196,0.200,0.078,0.402,0.403,0.728,0.036,0.036,0.019,0.084,0.085,0.209,-0.004,,,,
2024-10-04,14:47:53.580,45.94782540,-66.63181410,-18.175,-0.001,-0.000,-0.001,0.001,0.001,0.001,-0.621,0.498,-9.750,0.008,-0.004,-9.783,162.833,-3.686,-2.947,-0.434,-0.179,-0.115,-0.426,-0.184,-0.133,0.402,0.403,0.728,0.036,0.036,0.019,0.084,0.085,0.209,-0.004,,,,
2024-10-04,14:47:54.580,45.94782526,-66.63181409,-18.161,-0.008,-0.000,-0.001,0.007,0.002,0.008,-0.629,0.503,-9.773,0.003,0.000,-9.806,162.818,-3.696,-2.946,-0.172,0.049,-0.024,-0.170,0.048,-0.038,0.402,0.403,0.728,0.036,0.036,0.019,0.084,0.085,0.209,-0.004,,,,
2024-10-04,14:47:55.580,45.94782506,-66.63181403,-18.131,-0.016,0.002,-0.001,0.016,0.003,0.016,-0.628,0.508,-9.775,0.005,0.005,-9.808,162.819,-3.703,-2.945,-0.064,-0.047,0.017,-0.065,-0.046,0.015,0.402,0.403,0.727,0.036,0.036,0.019,0.083,0.084,0.208,-0.004,,,,
2024-10-04,14:47:56.580,45.94782501,-66.63181404,-18.108,-0.017,0.002,-0.001,0.017,0.004,0.017,-0.625,0.510,-9.772,0.006,0.008,-9.805,162.840,-3.694,-2.945,0.179,-0.053,-0.109,0.186,-0.059,-0.094,0.402,0.402,0.727,0.036,0.036,0.019,0.083,0.084,0.208,-0.004,,,,
2024-10-04,14:47:57.580,45.94782515,-66.63181398,-18.096,-0.009,0.002,-0.001,0.010,0.001,0.010,-0.634,0.507,-9.777,-0.005,0.002,-9.811,162.885,-3.676,-2.955,-0.044,0.020,-0.221,-0.030,0.009,-0.224,0.402,0.403,0.727,0.036,0.036,0.019,0.083,0.084,0.209,-0.004,,,,
2024-10-04,14:47:58.580,45.94782518,-66.63181395,-18.077,-0.004,0.003,-0.002,0.005,-0.002,0.005,-0.627,0.512,-9.779,0.002,0.007,-9.813,162.910,-3.675,-2.951,0.117,-0.096,-0.089,0.122,-0.101,-0.077,0.402,0.403,0.727,0.036,0.036,0.019,0.083,0.084,0.208,-0.004,,,,
2024-10-04,14:47:59.580,45.94782516,-66.63181394,-18.067,-0.003,0.002,-0.002,0.004,-0.001,0.004,-0.621,0.501,-9.760,0.007,-0.001,-9.792,162.890,-3.677,-2.947,-0.233,-0.478,-0.121,-0.227,-0.483,-0.111,0.402,0.403,0.727,0.036,0.036,0.019,0.083,0.084,0.208,-0.004,,,,
2024-10-04,14:48:00.580,45.94782514,-66.63181397,-18.057,-0.003,-0.000,-0.002,0.002,0.001,0.003,-0.629,0.505,-9.782,-0.001,0.002,-9.815,162.855,-3.671,-2.943,-0.025,0.001,0.073,-0.030,0.004,0.071,0.402,0.403,0.727,0.036,0.036,0.019,0.083,0.084,0.208,-0.004,,,,
2024-10-04,14:48:01.580,45.94782507,-66.63181404,-18.046,-0.004,-0.004,-0.002,0.003,0.005,0.005,-0.628,0.507,-9.776,-0.000,0.004,-9.809,162.857,-3.671,-2.943,0.069,0.056,-0.028,0.071,0.055,-0.026,0.402,0.403,0.727,0.036,0.036,0.019,0.083,0.083,0.208,-0.002,,,,
2024-10-04,14:48:02.580,45.94782510,-66.63181410,-18.041,-0.001,-0.006,-0.002,-0.001,0.006,0.006,-0.631,0.501,-9.773,-0.004,-0.002,-9.806,162.870,-3.663,-2.946,-0.241,0.078,-0.101,-0.233,0.073,-0.120,0.402,0.402,0.727,0.035,0.036,0.019,0.082,0.083,0.208,-0.002,,,,
2024-10-04,14:48:03.580,45.94782516,-66.63181413,-18.034,0.004,-0.006,-0.002,-0.005,0.005,0.007,-0.626,0.498,-9.771,-0.000,-0.005,-9.803,162.884,-3.657,-2.945,-0.048,0.089,0.155,-0.057,0.097,0.147,0.402,0.403,0.727,0.036,0.036,0.019,0.082,0.083,0.208,-0.002,,,,
2024-10-04,14:48:04.580,45.94782516,-66.63181403,-18.015,0.005,-0.004,-0.002,-0.006,0.002,0.006,-0.625,0.503,-9.760,0.001,-0.000,-9.793,162.897,-3.662,-2.949,-0.222,-0.277,0.010,-0.223,-0.276,0.010,0.402,0.403,0.727,0.035,0.036,0.019,0.082,0.083,0.208,0.000,,,,
2024-10-04,14:48:05.580,45.94782519,-66.63181395,-18.006,0.007,-0.002,-0.002,-0.007,-0.000,0.007,-0.627,0.502,-9.770,-0.000,-0.001,-9.803,162.924,-3.662,-2.950,-0.172,0.003,0.122,-0.180,0.010,0.110,0.402,0.402,0.727,0.035,0.036,0.019,0.081,0.083,0.208,0.000,,,,
2024-10-04,14:48:06.580,45.94782533,-66.63181391,-18.000,0.012,-0.001,-0.002,-0.012,-0.002,0.012,-0.628,0.511,-9.776,-0.003,0.007,-9.809,162.934,-3.654,-2.950,0.182,-0.097,-0.064,0.186,-0.101,-0.047,0.402,0.403,0.727,0.035,0.036,0.019,0.081,0.083,0.208,0.000,,,,
2024-10-04,14:48:07.580,45.94782539,-66.63181406,-18.001,0.014,-0.006,-0.002,-0.016,0.002,0.016,-0.632,0.505,-9.783,-0.007,0.003,-9.816,162.944,-3.652,-2.938,-0.071,0.179,-0.154,-0.061,0.171,-0.167,0.402,0.403,0.727,0.035,0.036,0.019,0.081,0.083,0.208,0.002,,,,
2024-10-04,14:48:08.580,45.94782538,-66.63181407,-17.992,0.013,-0.009,-0.002,-0.015,0.004,0.016,-0.629,0.511,-9.769,-0.003,0.010,-9.802,162.959,-3.662,-2.937,0.339,-0.214,-0.227,0.352,-0.225,-0.194,0.402,0.402,0.727,0.035,0.035,0.019,0.081,0.082,0.207,0.002,,,,
2024-10-04,14:48:09.580,45.94782529,-66.63181400,-17.971,0.008,-0.007,-0.002,-0.010,0.004,0.010,-0.627,0.500,-9.779,0.001,-0.003,-9.812,162.960,-3.671,-2.942,-0.089,0.113,0.008,-0.089,0.114,-0.004,0.402,0.403,0.727,0.035,0.036,0.019,0.081,0.082,0.207,0.002,,,,
2024-10-04,14:48:10.580,45.94782516,-66.63181401,-17.966,0.002,-0.007,-0.002,-0.003,0.006,0.007,-0.624,0.504,-9.770,0.005,0.001,-9.803,162.962,-3.679,-2.944,-0.188,-0.098,0.062,-0.192,-0.095,0.055,0.402,0.403,0.727,0.035,0.036,0.019,0.081,0.082,0.207,0.002,,,,
2024-10-04,14:48:11.580,45.94782513,-66.63181398,-17.953,-0.000,-0.006,-0.001,-0.001,0.006,0.006,-0.626,0.501,-9.766,0.002,-0.001,-9.799,162.942,-3.676,-2.943,-0.253,-0.070,-0.099,-0.246,-0.075,-0.111,0.402,0.402,0.727,0.035,0.035,0.019,0.081,0.081,0.207,0.002,,,,
2024-10-04,14:48:12.580,45.94782516,-66.63181390,-17.951,0.001,-0.004,-0.001,-0.002,0.004,0.004,-0.620,0.505,-9.779,0.009,0.003,-9.811,162.928,-3.674,-2.942,0.323,0.001,0.100,0.315,0.006,0.121,0.402,0.403,0.727,0.035,0.036,0.019,0.081,0.082,0.207,0.002,,,,
2024-10-04,14:48:13.580,45.94782518,-66.63181383,-17.942,0.002,-0.003,-0.001,-0.003,0.002,0.004,-0.628,0.507,-9.767,0.000,0.005,-9.800,162.927,-3.674,-2.943,-0.010,-0.052,0.136,-0.019,-0.045,0.137,0.402,0.402,0.727,0.035,0.035,0.019,0.080,0.081,0.207,0.002,,,,
2024-10-04,14:48:14.580,45.94782513,-66.63181383,-17.939,0.001,-0.004,-0.001,-0.002,0.003,0.004,-0.618,0.507,-9.776,0.011,0.006,-9.809,162.924,-3.677,-2.935,0.376,-0.022,0.295,0.357,-0.007,0.319,0.402,0.402,0.727,0.035,0.035,0.019,0.080,0.081,0.207,0.002,,,,
2024-10-04,14:48:15.580,45.94782501,-66.63181387,-17.933,-0.004,-0.006,-0.001,0.002,0.007,0.007,-0.637,0.503,-9.783,-0.007,0.001,-9.817,162.907,-3.679,-2.939,-0.097,0.374,-0.107,-0.089,0.368,-0.132,0.402,0.403,0.727,0.035,0.036,0.019,0.080,0.081,0.207,0.000,,,,
2024-10-04,14:48:16.580,45.94782493,-66.63181388,-17.913,-0.006,-0.006,-0.001,0.004,0.008,0.009,-0.630,0.503,-9.779,0.000,0.000,-9.812,162.906,-3.683,-2.942,-0.202,0.305,-0.054,-0.197,0.302,-0.082,0.402,0.402,0.727,0.035,0.035,0.019,0.080,0.081,0.207,0.000,,,,
2024-10-04,14:48:17.580,45.94782485,-66.63181384,-17.899,-0.008,-0.005,-0.000,0.006,0.007,0.009,-0.623,0.504,-9.763,0.007,0.002,-9.796,162.913,-3.688,-2.942,0.052,-0.182,-0.061,0.055,-0.185,-0.048,0.402,0.402,0.727,0.035,0.035,0.019,0.080,0.081,0.207,-0.002,,,,
2024-10-04,14:48:18.580,45.94782476,-66.63181381,-17.881,-0.010,-0.004,-0.000,0.008,0.006,0.010,-0.624,0.504,-9.772,0.007,0.001,-9.805,162.934,-3.689,-2.950,-0.124,-0.207,0.163,-0.135,-0.199,0.165,0.402,0.403,0.727,0.035,0.035,0.019,0.080,0.081,0.208,-0.002,,,,
2024-10-04,14:48:19.580,45.94782469,-66.63181376,-17.869,-0.010,-0.002,-0.000,0.009,0.005,0.010,-0.619,0.508,-9.763,0.011,0.005,-9.795,162.973,-3.688,-2.950,0.073,-0.365,0.295,0.053,-0.349,0.318,0.402,0.402,0.726,0.035,0.035,0.019,0.080,0.081,0.207,-0.002,,,,
2024-10-04,14:48:20.580,45.94782461,-66.63181355,-17.846,-0.010,0.004,-0.001,0.011,-0.001,0.011,-0.621,0.514,-9.770,0.011,0.008,-9.804,163.014,-3.693,-2.961,0.144,-0.264,-0.097,0.149,-0.269,-0.074,0.402,0.402,0.726,0.035,0.035,0.019,0.079,0.080,0.207,-0.004,,,,
2024-10-04,14:48:21.580,45.94782455,-66.63181348,-17.834,-0.010,0.007,-0.001,0.011,-0.004,0.012,-0.624,0.504,-9.773,0.007,-0.000,-9.805,163.015,-3.688,-2.956,0.144,0.073,-0.062,0.148,0.069,-0.056,0.402,0.403,0.726,0.035,0.035,0.019,0.080,0.080,0.207,-0.004,,,,
2024-10-04,14:48:22.580,45.94782453,-66.63181352,-17.834,-0.009,0.005,-0.001,0.010,-0.002,0.010,-0.632,0.498,-9.784,-0.001,-0.006,-9.817,163.004,-3.684,-2.951,-0.112,0.199,-0.008,-0.111,0.199,-0.025,0.402,0.402,0.726,0.035,0.035,0.019,0.079,0.080,0.207,-0.006,,,,
2024-10-04,14:48:23.580,45.94782452,-66.63181358,-17.832,-0.006,0.002,-0.000,0.006,0.000,0.006,-0.630,0.502,-9.777,-0.001,-0.002,-9.810,163.004,-3.674,-2.948,-0.131,0.143,-0.097,-0.124,0.138,-0.112,0.402,0.402,0.726,0.035,0.035,0.019,0.079,0.080,0.207,-0.006,,,,
2024-10-04,14:48:24.580,45.94782450,-66.63181356,-17.824,-0.004,0.001,-0.000,0.004,0.001,0.004,-0.630,0.505,-9.779,-0.001,0.002,-9.812,162.995,-3.674,-2.946,-0.050,0.265,-0.133,-0.041,0.258,-0.149,0.402,0.403,0.726,0.035,0.035,0.019,0.079,0.080,0.207,-0.006,,,,
2024-10-04,14:48:25.580,45.94782443,-66.63181340,-17.801,-0.004,0.003,-0.000,0.005,-0.002,0.005,-0.626,0.503,-9.764,0.003,0.000,-9.797,162.988,-3.681,-2.949,-0.083,-0.155,-0.257,-0.067,-0.168,-0.253,0.402,0.402,0.726,0.035,0.035,0.019,0.078,0.080,0.207,-0.008,,,,
2024-10-04,14:48:26.580,45.94782442,-66.63181337,-17.790,-0.004,0.003,0.000,0.004,-0.002,0.005,-0.630,0.502,-9.774,-0.002,-0.001,-9.807,162.977,-3.676,-2.947,-0.228,0.028,-0.081,-0.222,0.024,-0.097,0.402,0.403,0.726,0.035,0.035,0.019,0.078,0.080,0.207,-0.008,,,,
2024-10-04,14:48:27.580,45.94782439,-66.63181339,-17.788,-0.003,0.000,-0.000,0.003,0.001,0.003,-0.622,0.504,-9.763,0.006,0.002,-9.796,162.973,-3.676,-2.941,-0.065,-0.179,0.066,-0.069,-0.176,0.071,0.402,0.403,0.726,0.035,0.035,0.019,0.078,0.080,0.207,-0.008,,,,
2024-10-04,14:48:28.580,45.94782427,-66.63181344,-17.772,-0.006,-0.003,-0.000,0.005,0.004,0.006,-0.627,0.505,-9.770,0.003,0.004,-9.803,162.979,-3.685,-2.935,0.057,-0.001,-0.137,0.066,-0.008,-0.133,0.402,0.402,0.726,0.035,0.035,0.019,0.078,0.079,0.207,-0.010,,,,
2024-10-04,14:48:29.580,45.94782423,-66.63181343,-17.743,-0.007,-0.003,-0.000,0.006,0.005,0.008,-0.625,0.504,-9.765,0.005,0.002,-9.798,162.968,-3.683,-2.939,0.052,-0.154,0.155,0.042,-0.146,0.166,0.402,0.402,0.726,0.035,0.035,0.019,0.078,0.079,0.207,-0.010,,,,
2024-10-04,14:48:30.580,45.94782422,-66.63181354,-17.735,-0.006,-0.006,-0.000,0.004,0.007,0.008,-0.631,0.511,-9.789,-0.001,0.009,-9.822,162.947,-3.680,-2.933,0.272,0.087,0.049,0.269,0.089,0.062,0.402,0.403,0.726,0.035,0.035,0.019,0.078,0.079,0.207,-0.010,,,,
2024-10-04,14:48:31.580,45.94782416,-66.63181360,-17.721,-0.007,-0.008,-0.000,0.004,0.010,0.010,-0.622,0.504,-9.757,0.007,0.003,-9.790,162.916,-3.682,-2.935,0.014,-0.207,-0.018,0.015,-0.208,-0.007,0.402,0.402,0.726,0.035,0.035,0.019,0.078,0.079,0.207,-0.010,,,,
2024-10-04,14:48:32.580,45.94782416,-66.63181365,-17.730,-0.006,-0.009,-0.000,0.003,0.011,0.011,-0.629,0.511,-9.771,-0.000,0.010,-9.805,162.882,-3.675,-2.935,0.007,0.068,0.065,0.004,0.071,0.062,0.402,0.403,0.726,0.035,0.035,0.019,0.078,0.079,0.207,-0.010,,,,
2024-10-04,14:48:33.580,45.94782410,-66.63181352,-17.709,-0.006,-0.006,-0.000,0.004,0.007,0.008,-0.624,0.501,-9.762,0.004,-0.002,-9.794,162.845,-3.674,-2.946,-0.298,0.078,-0.158,-0.287,0.070,-0.180,0.402,0.403,0.726,0.035,0.035,0.019,0.077,0.078,0.207,-0.010,,,,
2024-10-04,14:48:34.580,45.94782405,-66.63181343,-17.700,-0.005,-0.002,-0.001,0.004,0.003,0.005,-0.633,0.506,-9.778,-0.004,0.002,-9.812,162.799,-3.676,-2.948,-0.084,0.131,-0.002,-0.083,0.131,-0.014,0.402,0.402,0.726,0.035,0.035,0.019,0.077,0.078,0.207,-0.010,,,,
2024-10-04,14:48:35.580,45.94782402,-66.63181340,-17.690,-0.004,-0.001,-0.000,0.003,0.002,0.004,-0.633,0.509,-9.775,-0.004,0.005,-9.809,162.760,-3.675,-2.948,-0.028,-0.141,-0.109,-0.021,-0.146,-0.104,0.402,0.403,0.726,0.035,0.035,0.019,0.077,0.078,0.207,-0.010,,,,
2024-10-04,14:48:36.580,45.94782401,-66.63181352,-17.688,-0.002,-0.004,-0.001,0.001,0.004,0.004,-0.632,0.509,-9.769,-0.005,0.007,-9.802,162.728,-3.670,-2.945,-0.032,0.060,-0.317,-0.012,0.043,-0.321,0.402,0.403,0.726,0.035,0.035,0.019,0.077,0.078,0.207,-0.008,,,,
2024-10-04,14:48:37.580,45.94782400,-66.63181365,-17.695,0.000,-0.007,-0.001,-0.002,0.006,0.007,-0.627,0.507,-9.784,0.001,0.004,-9.817,162.725,-3.664,-2.944,0.125,0.220,0.005,0.126,0.220,0.001,0.402,0.402,0.726,0.035,0.035,0.019,0.077,0.078,0.207,-0.008,,,,
2024-10-04,14:48:38.580,45.94782398,-66.63181366,-17.680,0.002,-0.006,-0.001,-0.003,0.005,0.006,-0.624,0.506,-9.757,0.002,0.002,-9.790,162.702,-3.663,-2.952,-0.047,-0.390,-0.180,-0.037,-0.399,-0.163,0.402,0.402,0.726,0.035,0.035,0.019,0.077,0.078,0.206,-0.008,,,,
2024-10-04,14:48:39.580,45.94782394,-66.63181371,-17.683,0.003,-0.005,-0.001,-0.004,0.004,0.006,-0.629,0.502,-9.771,-0.003,-0.002,-9.804,162.655,-3.661,-2.953,-0.071,0.122,-0.074,-0.066,0.118,-0.084,0.402,0.402,0.726,0.035,0.035,0.019,0.077,0.078,0.206,-0.006,,,,
2024-10-04,14:48:40.580,45.94782387,-66.63181372,-17.687,0.003,-0.004,-0.000,-0.004,0.003,0.005,-0.631,0.504,-9.773,-0.004,-0.001,-9.806,162.623,-3.665,-2.958,-0.225,-0.054,-0.191,-0.213,-0.064,-0.202,0.402,0.402,0.726,0.035,0.035,0.019,0.077,0.077,0.206,-0.006,,,,
2024-10-04,14:48:41.580,45.94782387,-66.63181380,-17.688,0.004,-0.004,-0.000,-0.005,0.003,0.006,-0.630,0.505,-9.785,-0.002,-0.000,-9.818,162.590,-3.662,-2.955,0.015,0.202,-0.122,0.024,0.196,-0.131,0.402,0.402,0.726,0.034,0.035,0.019,0.076,0.077,0.206,-0.006,,,,
2024-10-04,14:48:42.580,45.94782380,-66.63181377,-17.673,0.003,-0.002,-0.000,-0.004,0.001,0.004,-0.627,0.505,-9.767,-0.001,0.000,-9.800,162.554,-3.667,-2.958,-0.002,-0.020,-0.054,0.001,-0.023,-0.053,0.402,0.402,0.726,0.035,0.035,0.019,0.076,0.077,0.206,-0.004,,,,
2024-10-04,14:48:43.580,45.94782372,-66.63181367,-17.661,0.002,0.003,-0.000,-0.001,-0.003,0.003,-0.621,0.508,-9.771,0.007,0.002,-9.804,162.549,-3.673,-2.964,0.109,-0.092,0.025,0.107,-0.091,0.037,0.402,0.402,0.726,0.034,0.035,0.019,0.076,0.077,0.206,-0.004,,,,
2024-10-04,14:48:44.580,45.94782369,-66.63181362,-17.653,0.002,0.006,-0.000,0.000,-0.006,0.006,-0.619,0.507,-9.767,0.009,0.001,-9.800,162.579,-3.675,-2.964,0.147,-0.195,0.068,0.142,-0.192,0.087,0.402,0.403,0.726,0.035,0.035,0.019,0.076,0.077,0.206,-0.004,,,,
2024-10-04,14:48:45.580,45.94782362,-66.63181361,-17.640,0.001,0.006,-0.000,0.001,-0.006,0.006,-0.624,0.507,-9.767,0.004,0.001,-9.800,162.599,-3.677,-2.964,-0.100,-0.229,-0.218,-0.086,-0.240,-0.212,0.402,0.402,0.726,0.035,0.035,0.019,0.076,0.077,0.206,-0.004,,,,
2024-10-04,14:48:46.580,45.94782368,-66.63181361,-17.635,0.004,0.006,-0.001,-0.001,-0.007,0.007,-0.628,0.509,-9.779,-0.001,0.003,-9.812,162.604,-3.666,-2.961,0.147,0.157,0.022,0.146,0.158,0.023,0.402,0.402,0.726,0.034,0.035,0.019,0.076,0.077,0.206,-0.002,,,,
2024-10-04,14:48:47.580,45.94782387,-66.63181359,-17.643,0.011,0.006,-0.001,-0.009,-0.009,0.013,-0.625,0.502,-9.763,-0.000,-0.003,-9.796,162.609,-3.655,-2.961,-0.054,0.025,-0.166,-0.044,0.016,-0.170,0.402,0.402,0.726,0.034,0.035,0.019,0.076,0.076,0.206,-0.002,,,,
2024-10-04,14:48:48.580,45.94782390,-66.63181357,-17.637,0.014,0.006,-0.001,-0.011,-0.010,0.015,-0.627,0.504,-9.776,-0.000,-0.001,-9.809,162.588,-3.659,-2.959,-0.289,0.146,-0.087,-0.283,0.141,-0.113,0.402,0.402,0.726,0.034,0.035,0.019,0.076,0.077,0.206,-0.002,,,,
2024-10-04,14:48:49.580,45.94782380,-66.63181348,-17.626,0.009,0.006,-0.000,-0.007,-0.009,0.011,-0.626,0.499,-9.770,0.001,-0.005,-9.802,162.579,-3.668,-2.953,-0.164,0.238,0.179,-0.174,0.247,0.156,0.402,0.402,0.726,0.034,0.035,0.019,0.075,0.076,0.206,0.000,,,,
2024-10-04,14:48:50.580,45.94782363,-66.63181341,-17.615,0.002,0.006,-0.000,-0.000,-0.006,0.006,-0.624,0.506,-9.767,0.005,0.004,-9.800,162.612,-3.679,-2.946,-0.191,-0.285,-0.111,-0.184,-0.290,-0.108,0.402,0.402,0.726,0.034,0.034,0.019,0.075,0.076,0.206,0.000,,,,
2024-10-04,14:48:51.580,45.94782356,-66.63181347,-17.612,-0.001,0.003,-0.001,0.002,-0.002,0.003,-0.633,0.511,-9.785,-0.003,0.009,-9.819,162.638,-3.674,-2.935,0.131,0.156,-0.124,0.139,0.149,-0.123,0.402,0.402,0.726,0.034,0.035,0.019,0.075,0.076,0.206,0.000,,,,
2024-10-04,14:48:52.580,45.94782357,-66.63181358,-17.615,-0.000,-0.003,-0.001,-0.001,0.003,0.003,-0.635,0.507,-9.788,-0.007,0.005,-9.822,162.661,-3.666,-2.934,-0.145,0.321,-0.020,-0.142,0.320,-0.046,0.402,0.402,0.726,0.034,0.035,0.019,0.075,0.076,0.206,0.000,,,,
2024-10-04,14:48:53.580,45.94782360,-66.63181368,-17.620,0.003,-0.007,-0.001,-0.005,0.006,0.008,-0.629,0.509,-9.787,-0.002,0.007,-9.820,162.671,-3.661,-2.931,0.197,0.028,0.057,0.193,0.031,0.068,0.402,0.403,0.726,0.034,0.035,0.019,0.075,0.076,0.206,0.000,,,,
2024-10-04,14:48:54.580,45.94782356,-66.63181369,-17.615,0.003,-0.009,-0.001,-0.005,0.007,0.009,-0.623,0.511,-9.771,0.003,0.011,-9.804,162.675,-3.663,-2.933,0.089,-0.078,0.045,0.085,-0.076,0.055,0.402,0.402,0.726,0.034,0.035,0.019,0.074,0.076,0.206,0.002,,,,
2024-10-04,14:48:55.580,45.94782350,-66.63181367,-17.599,0.002,-0.008,-0.000,-0.004,0.007,0.008,-0.631,0.505,-9.780,-0.003,0.004,-9.814,162.660,-3.668,-2.935,-0.089,0.075,-0.034,-0.086,0.073,-0.043,0.402,0.402,0.726,0.034,0.034,0.019,0.074,0.076,0.206,0.002,,,,
2024-10-04,14:48:56.580,45.94782350,-66.63181375,-17.603,0.002,-0.010,-0.001,-0.005,0.009,0.010,-0.637,0.504,-9.777,-0.010,0.003,-9.811,162.664,-3.662,-2.933,-0.151,0.286,-0.374,-0.126,0.266,-0.397,0.402,0.403,0.726,0.034,0.035,0.019,0.074,0.076,0.206,0.002,,,,
2024-10-04,14:48:57.580,45.94782346,-66.63181385,-17.605,0.002,-0.012,-0.000,-0.006,0.011,0.013,-0.619,0.503,-9.761,0.007,0.004,-9.794,162.663,-3.665,-2.925,0.105,-0.160,0.111,0.097,-0.155,0.126,0.402,0.402,0.726,0.034,0.035,0.019,0.074,0.075,0.206,0.002,,,,
2024-10-04,14:48:58.580,45.94782341,-66.63181390,-17.625,0.001,-0.013,-0.000,-0.005,0.013,0.013,-0.626,0.505,-9.762,0.001,0.005,-9.795,162.662,-3.670,-2.931,-0.189,-0.217,-0.034,-0.187,-0.218,-0.035,0.402,0.402,0.726,0.034,0.034,0.019,0.074,0.075,0.206,0.002,,,,
2024-10-04,14:48:59.580,45.94782334,-66.63181390,-17.626,-0.001,-0.013,-0.000,-0.003,0.012,0.013,-0.627,0.507,-9.772,0.001,0.007,-9.805,162.663,-3.673,-2.929,-0.131,-0.072,-0.066,-0.127,-0.075,-0.070,0.402,0.402,0.725,0.034,0.034,0.019,0.074,0.075,0.205,0.002,,,,
2024-10-04,14:49:00.580,45.94782326,-66.63181390,-17.615,-0.004,-0.012,-0.000,-0.000,0.012,0.012,-0.616,0.504,-9.761,0.012,0.005,-9.794,162.637,-3.678,-2.926,0.051,-0.291,0.229,0.035,-0.279,0.246,0.402,0.402,0.726,0.034,0.034,0.019,0.074,0.075,0.205,0.002,,,,
2024-10-04,14:49:01.580,45.94782314,-66.63181391,-17.615,-0.007,-0.012,0.000,0.003,0.014,0.014,-0.624,0.510,-9.752,0.005,0.012,-9.785,162.595,-3.683,-2.922,0.032,-0.337,-0.396,0.056,-0.357,-0.376,0.402,0.402,0.725,0.034,0.034,0.019,0.074,0.074,0.205,0.002,,,,
2024-10-04,14:49:02.580,45.94782303,-66.63181394,-17.616,-0.010,-0.012,0.000,0.006,0.015,0.016,-0.622,0.497,-9.759,0.007,-0.002,-9.792,162.578,-3.684,-2.926,-0.402,-0.296,-0.075,-0.397,-0.300,-0.086,0.402,0.403,0.726,0.034,0.034,0.019,0.074,0.075,0.205,0.000,,,,
2024-10-04,14:49:03.580,45.94782293,-66.63181395,-17.626,-0.012,-0.011,0.000,0.008,0.014,0.016,-0.627,0.513,-9.769,0.003,0.012,-9.802,162.583,-3.681,-2.932,0.076,-0.019,-0.083,0.081,-0.024,-0.077,0.402,0.402,0.726,0.034,0.034,0.019,0.073,0.074,0.205,0.000,,,,
2024-10-04,14:49:04.580,45.94782285,-66.63181400,-17.636,-0.012,-0.011,0.000,0.008,0.014,0.016,-0.622,0.503,-9.765,0.007,0.001,-9.798,162.595,-3.683,-2.940,0.076,-0.242,0.140,0.066,-0.234,0.157,0.402,0.402,0.725,0.034,0.034,0.019,0.073,0.074,0.205,0.000,,,,
2024-10-04,14:49:05.580,45.94782281,-66.63181377,-17.605,-0.010,-0.003,0.000,0.008,0.006,0.010,-0.623,0.512,-9.772,0.007,0.007,-9.805,162.548,-3.680,-2.955,0.109,-0.178,-0.077,0.114,-0.181,-0.061,0.402,0.403,0.726,0.034,0.034,0.019,0.073,0.074,0.205,0.000,,,,
2024-10-04,14:49:06.580,45.94782271,-66.63181393,-17.618,-0.010,-0.004,0.000,0.008,0.007,0.010,-0.623,0.510,-9.769,0.006,0.007,-9.802,162.381,-3.677,-2.946,0.140,-0.264,0.036,0.136,-0.261,0.058,0.402,0.402,0.725,0.034,0.034,0.019,0.073,0.074,0.205,-0.002,,,,
2024-10-04,14:49:07.580,45.94782265,-66.63181410,-17.635,-0.009,-0.008,0.000,0.006,0.010,0.012,-0.629,0.512,-9.781,0.000,0.009,-9.815,162.311,-3.673,-2.947,0.159,0.014,-0.097,0.165,0.009,-0.088,0.402,0.402,0.725,0.034,0.034,0.019,0.073,0.074,0.206,-0.002,,,,
2024-10-04,14:49:08.580,45.94782257,-66.63181406,-17.641,-0.008,-0.005,0.000,0.006,0.007,0.009,-0.627,0.508,-9.788,0.002,0.003,-9.822,162.303,-3.671,-2.958,0.317,0.199,0.146,0.308,0.206,0.155,0.402,0.402,0.725,0.034,0.034,0.019,0.073,0.074,0.205,-0.002,,,,
2024-10-04,14:49:09.580,45.94782258,-66.63181403,-17.656,-0.004,-0.001,0.000,0.003,0.002,0.004,-0.629,0.514,-9.776,-0.002,0.008,-9.810,162.301,-3.667,-2.962,0.224,0.199,-0.209,0.238,0.188,-0.204,0.402,0.402,0.725,0.034,0.034,0.019,0.073,0.074,0.205,-0.004,,,,
2024-10-04,14:49:10.580,45.94782264,-66.63181396,-17.652,0.002,0.003,0.000,-0.001,-0.003,0.003,-0.631,0.504,-9.795,-0.004,-0.004,-9.828,162.305,-3.662,-2.969,-0.036,0.462,-0.132,-0.026,0.455,-0.158,0.402,0.402,0.725,0.034,0.034,0.019,0.073,0.073,0.205,-0.004,,,,
2024-10-04,14:49:11.580,45.94782261,-66.63181388,-17.633,0.004,0.007,0.001,-0.001,-0.007,0.007,-0.630,0.501,-9.780,-0.003,-0.007,-9.813,162.285,-3.668,-2.971,-0.131,0.154,-0.020,-0.129,0.153,-0.036,0.402,0.403,0.725,0.034,0.034,0.019,0.073,0.073,0.205,-0.004,,,,
2024-10-04,14:49:12.580,45.94782259,-66.63181386,-17.630,0.004,0.008,0.001,-0.002,-0.009,0.009,-0.621,0.507,-9.774,0.006,0.000,-9.807,162.269,-3.669,-2.968,0.492,-0.103,0.026,0.489,-0.102,0.062,0.402,0.402,0.725,0.034,0.034,0.019,0.072,0.073,0.205,-0.006,,,,
2024-10-04,14:49:13.580,45.94782264,-66.63181399,-17.650,0.007,0.006,0.001,-0.005,-0.007,0.009,-0.631,0.506,-9.788,-0.004,-0.001,-9.821,162.280,-3.663,-2.964,0.088,0.160,0.050,0.085,0.162,0.048,0.402,0.402,0.725,0.034,0.034,0.019,0.072,0.073,0.206,-0.006,,,,
2024-10-04,14:49:14.580,45.94782262,-66.63181402,-17.648,0.007,0.004,0.001,-0.006,-0.006,0.008,-0.622,0.507,-9.772,0.005,0.001,-9.804,162.294,-3.667,-2.959,0.118,0.037,0.047,0.115,0.039,0.052,0.402,0.402,0.725,0.034,0.034,0.019,0.072,0.073,0.206,-0.006,,,,
2024-10-04,14:49:15.580,45.94782248,-66.63181400,-17.641,0.002,0.004,0.001,-0.001,-0.005,0.005,-0.626,0.502,-9.768,0.003,-0.002,-9.800,162.311,-3.677,-2.954,-0.331,0.025,-0.049,-0.327,0.023,-0.071,0.402,0.402,0.725,0.034,0.034,0.019,0.072,0.073,0.206,-0.008,,,,
2024-10-04,14:49:16.580,45.94782233,-66.63181404,-17.638,-0.004,0.003,0.001,0.005,-0.002,0.005,-0.617,0.497,-9.770,0.012,-0.006,-9.802,162.331,-3.680,-2.951,-0.143,-0.061,0.152,-0.152,-0.053,0.146,0.402,0.402,0.725,0.034,0.034,0.019,0.072,0.073,0.206,-0.008,,,,
2024-10-04,14:49:17.580,45.94782220,-66.63181397,-17.630,-0.008,0.004,0.001,0.009,-0.001,0.009,-0.636,0.511,-9.772,-0.006,0.007,-9.806,162.379,-3.681,-2.949,-0.148,-0.029,-0.269,-0.130,-0.043,-0.276,0.402,0.403,0.725,0.034,0.034,0.019,0.072,0.073,0.206,-0.008,,,,
2024-10-04,14:49:18.580,45.94782220,-66.63181392,-17.627,-0.006,0.004,0.001,0.007,-0.002,0.007,-0.621,0.509,-9.772,0.007,0.005,-9.805,162.428,-3.670,-2.951,0.166,-0.085,0.013,0.165,-0.085,0.028,0.402,0.402,0.725,0.034,0.034,0.019,0.072,0.073,0.205,-0.008,,,,
2024-10-04,14:49:19.580,45.94782221,-66.63181388,-17.634,-0.003,0.004,0.001,0.004,-0.003,0.005,-0.628,0.510,-9.777,-0.001,0.006,-9.810,162.477,-3.664,-2.955,-0.128,0.072,-0.063,-0.123,0.069,-0.075,0.402,0.402,0.725,0.034,0.034,0.019,0.071,0.072,0.205,-0.008,,,,
2024-10-04,14:49:20.580,45.94782222,-66.63181384,-17.633,0.000,0.004,0.001,0.001,-0.004,0.004,-0.621,0.512,-9.769,0.005,0.007,-9.802,162.518,-3.664,-2.954,0.189,-0.250,0.052,0.184,-0.247,0.077,0.402,0.403,0.725,0.034,0.034,0.019,0.072,0.072,0.205,-0.008,,,,
2024-10-04,14:49:21.580,45.94782221,-66.63181385,-17.626,0.002,0.003,0.001,-0.001,-0.003,0.004,-0.626,0.513,-9.775,0.002,0.009,-9.809,162.543,-3.667,-2.949,0.235,-0.347,-0.159,0.244,-0.354,-0.126,0.402,0.402,0.725,0.034,0.034,0.019,0.071,0.072,0.205,-0.008,,,,
2024-10-04,14:49:22.580,45.94782214,-66.63181391,-17.633,-0.000,0.000,0.000,0.000,-0.000,0.000,-0.623,0.507,-9.767,0.004,0.004,-9.800,162.556,-3.672,-2.943,0.226,-0.073,-0.083,0.230,-0.078,-0.065,0.402,0.402,0.725,0.034,0.034,0.019,0.071,0.072,0.205,-0.008,,,,
2024-10-04,14:49:23.580,45.94782213,-66.63181402,-17.642,-0.001,-0.004,0.001,-0.000,0.004,0.004,-0.636,0.512,-9.787,-0.007,0.010,-9.821,162.575,-3.672,-2.937,0.120,0.269,-0.153,0.131,0.261,-0.159,0.402,0.403,0.725,0.034,0.034,0.019,0.071,0.072,0.205,-0.008,,,,
2024-10-04,14:49:24.580,45.94782217,-66.63181408,-17.653,0.000,-0.006,0.001,-0.002,0.006,0.006,-0.627,0.505,-9.779,0.002,0.004,-9.812,162.571,-3.673,-2.933,0.215,-0.001,0.015,0.213,-0.000,0.029,0.402,0.402,0.725,0.034,0.034,0.019,0.071,0.072,0.205,-0.008,,,,
2024-10-04,14:49:25.580,45.94782213,-66.63181424,-17.667,-0.001,-0.010,0.001,-0.002,0.010,0.010,-0.619,0.503,-9.744,0.008,0.005,-9.777,162.584,-3.676,-2.926,-0.115,-0.596,0.083,-0.122,-0.591,0.106,0.402,0.402,0.725,0.034,0.034,0.019,0.070,0.072,0.205,-0.008,,,,
2024-10-04,14:49:26.580,45.94782194,-66.63181423,-17.648,-0.008,-0.011,0.001,0.004,0.012,0.013,-0.628,0.507,-9.776,0.002,0.006,-9.809,162.629,-3.685,-2.931,-0.075,0.004,-0.182,-0.063,-0.005,-0.186,0.402,0.403,0.725,0.034,0.034,0.019,0.070,0.072,0.205,-0.006,,,,
2024-10-04,14:49:27.580,45.94782179,-66.63181412,-17.632,-0.014,-0.007,0.001,0.011,0.011,0.016,-0.636,0.509,-9.771,-0.004,0.008,-9.805,162.647,-3.692,-2.934,-0.050,-0.049,-0.247,-0.034,-0.061,-0.247,0.402,0.402,0.725,0.034,0.034,0.019,0.070,0.072,0.205,-0.006,,,,
2024-10-04,14:49:28.580,45.94782174,-66.63181418,-17.633,-0.015,-0.007,0.000,0.012,0.011,0.017,-0.632,0.500,-9.772,-0.002,-0.001,-9.805,162.618,-3.684,-2.932,-0.238,0.172,-0.096,-0.231,0.167,-0.120,0.402,0.402,0.725,0.033,0.034,0.019,0.070,0.071,0.205,-0.006,,,,
2024-10-04,14:49:29.580,45.94782179,-66.63181427,-17.633,-0.011,-0.009,0.001,0.008,0.012,0.015,-0.625,0.498,-9.771,0.004,-0.002,-9.804,162.605,-3.676,-2.933,-0.182,-0.053,0.134,-0.190,-0.046,0.125,0.402,0.402,0.725,0.033,0.034,0.019,0.070,0.071,0.205,-0.006,,,,
2024-10-04,14:49:30.580,45.94782178,-66.63181429,-17.611,-0.009,-0.010,0.000,0.005,0.012,0.013,-0.620,0.502,-9.760,0.007,0.002,-9.793,162.590,-3.672,-2.932,-0.207,-0.021,-0.008,-0.207,-0.022,-0.020,0.402,0.402,0.725,0.033,0.034,0.019,0.070,0.071,0.205,-0.004,,,,
2024-10-04,14:49:31.580,45.94782182,-66.63181437,-17.612,-0.005,-0.011,0.000,0.002,0.012,0.013,-0.627,0.510,-9.771,-0.001,0.010,-9.804,162.568,-3.666,-2.930,0.290,0.142,-0.065,0.294,0.138,-0.053,0.402,0.402,0.725,0.033,0.034,0.019,0.070,0.071,0.205,-0.004,,,,
2024-10-04,14:49:32.580,45.94782182,-66.63181440,-17.614,-0.004,-0.012,-0.000,0.000,0.012,0.012,-0.619,0.506,-9.769,0.009,0.005,-9.802,162.540,-3.668,-2.931,0.223,-0.134,0.078,0.218,-0.130,0.099,0.402,0.403,0.725,0.034,0.034,0.019,0.070,0.071,0.205,-0.002,,,,
2024-10-04,14:49:33.580,45.94782180,-66.63181429,-17.599,-0.003,-0.008,-0.000,0.001,0.009,0.009,-0.630,0.502,-9.779,-0.002,-0.000,-9.813,162.498,-3.670,-2.939,-0.128,0.386,-0.128,-0.118,0.379,-0.156,0.402,0.402,0.725,0.033,0.034,0.019,0.070,0.070,0.205,-0.002,,,,
2024-10-04,14:49:34.580,45.94782174,-66.63181421,-17.587,-0.005,-0.005,-0.001,0.003,0.006,0.007,-0.628,0.508,-9.776,0.002,0.005,-9.810,162.481,-3.678,-2.945,-0.168,0.109,-0.013,-0.166,0.109,-0.029,0.402,0.402,0.725,0.033,0.034,0.019,0.069,0.070,0.205,0.000,,,,
2024-10-04,14:49:35.580,45.94782174,-66.63181426,-17.589,-0.005,-0.005,-0.001,0.003,0.006,0.007,-0.626,0.509,-9.777,0.004,0.006,-9.810,162.461,-3.678,-2.945,0.178,-0.047,-0.140,0.186,-0.054,-0.126,0.402,0.402,0.725,0.033,0.033,0.019,0.069,0.070,0.205,0.002,,,,
2024-10-04,14:49:36.580,45.94782167,-66.63181422,-17.585,-0.007,-0.003,-0.001,0.006,0.005,0.007,-0.610,0.501,-9.769,0.019,-0.002,-9.801,162.443,-3.684,-2.948,0.085,-0.230,0.464,0.055,-0.206,0.479,0.402,0.402,0.725,0.033,0.034,0.019,0.069,0.070,0.205,0.002,,,,
2024-10-04,14:49:37.580,45.94782165,-66.63181405,-17.575,-0.007,0.002,-0.001,0.008,0.000,0.008,-0.627,0.509,-9.772,0.003,0.005,-9.805,162.417,-3.683,-2.954,0.014,-0.042,-0.187,0.026,-0.051,-0.183,0.402,0.402,0.725,0.033,0.033,0.019,0.069,0.070,0.205,0.004,,,,
2024-10-04,14:49:38.580,45.94782165,-66.63181409,-17.575,-0.007,0.002,-0.001,0.007,-0.000,0.007,-0.620,0.501,-9.767,0.009,-0.002,-9.800,162.378,-3.680,-2.951,-0.322,0.047,0.137,-0.330,0.054,0.113,0.402,0.403,0.725,0.033,0.034,0.019,0.069,0.070,0.205,0.006,,,,
2024-10-04,14:49:39.580,45.94782160,-66.63181421,-17.588,-0.008,-0.001,-0.002,0.007,0.003,0.008,-0.627,0.504,-9.767,0.002,0.002,-9.800,162.352,-3.682,-2.941,-0.075,-0.002,-0.015,-0.074,-0.002,-0.020,0.402,0.402,0.725,0.033,0.034,0.019,0.069,0.070,0.205,0.008,,,,
2024-10-04,14:49:40.580,45.94782160,-66.63181441,-17.604,-0.008,-0.006,-0.002,0.006,0.008,0.010,-0.630,0.505,-9.770,-0.000,0.004,-9.803,162.341,-3.680,-2.935,-0.146,-0.019,-0.192,-0.134,-0.029,-0.200,0.402,0.402,0.725,0.033,0.033,0.019,0.069,0.070,0.205,0.010,,,,
2024-10-04,14:49:41.580,45.94782154,-66.63181447,-17.605,-0.009,-0.008,-0.002,0.006,0.010,0.012,-0.622,0.506,-9.771,0.008,0.005,-9.804,162.322,-3.680,-2.935,0.147,-0.052,0.022,0.145,-0.050,0.034,0.402,0.402,0.725,0.033,0.033,0.019,0.069,0.069,0.205,0.012,,,,
2024-10-04,14:49:42.580,45.94782145,-66.63181449,-17.610,-0.011,-0.007,-0.002,0.009,0.010,0.013,-0.632,0.513,-9.780,-0.002,0.011,-9.814,162.301,-3.684,-2.940,0.186,0.085,-0.174,0.197,0.076,-0.165,0.402,0.402,0.725,0.033,0.033,0.019,0.069,0.069,0.205,0.014,,,,
2024-10-04,14:49:43.580,45.94782138,-66.63181446,-17.615,-0.013,-0.005,-0.002,0.011,0.008,0.014,-0.624,0.505,-9.780,0.007,0.002,-9.813,162.264,-3.684,-2.944,0.069,0.133,0.105,0.062,0.139,0.102,0.402,0.402,0.725,0.033,0.033,0.019,0.068,0.069,0.205,0.016,,,,
2024-10-04,14:49:44.580,45.94782135,-66.63181453,-17.624,-0.013,-0.005,-0.002,0.011,0.008,0.014,-0.630,0.506,-9.783,0.000,0.003,-9.816,162.244,-3.682,-2.942,0.042,0.199,-0.053,0.046,0.196,-0.061,0.402,0.403,0.725,0.033,0.034,0.019,0.068,0.069,0.205,0.018,,,,
2024-10-04,14:49:45.580,45.94782127,-66.63181447,-17.621,-0.014,-0.003,-0.002,0.012,0.007,0.014,-0.624,0.508,-9.768,0.006,0.006,-9.801,162.229,-3.685,-2.946,0.135,-0.213,-0.097,0.140,-0.217,-0.077,0.402,0.402,0.725,0.033,0.033,0.019,0.068,0.069,0.205,0.020,,,,
2024-10-04,14:49:46.580,45.94782120,-66.63181456,-17.637,-0.014,-0.003,-0.003,0.012,0.007,0.014,-0.618,0.502,-9.771,0.011,-0.001,-9.803,162.212,-3.677,-2.945,-0.050,0.124,0.105,-0.057,0.129,0.095,0.402,0.402,0.725,0.033,0.033,0.019,0.068,0.069,0.205,0.020,,,,
2024-10-04,14:49:47.580,45.94782122,-66.63181457,-17.652,-0.011,-0.003,-0.003,0.010,0.006,0.012,-0.628,0.507,-9.786,0.001,0.002,-9.820,162.214,-3.672,-2.949,0.235,0.086,0.092,0.229,0.091,0.103,0.402,0.403,0.725,0.033,0.033,0.019,0.068,0.069,0.205,0.022,,,,
2024-10-04,14:49:48.580,45.94782127,-66.63181456,-17.646,-0.007,-0.001,-0.003,0.006,0.003,0.007,-0.625,0.500,-9.780,0.004,-0.005,-9.812,162.219,-3.672,-2.955,-0.269,0.048,0.179,-0.279,0.057,0.159,0.402,0.402,0.725,0.033,0.033,0.019,0.068,0.069,0.204,0.024,,,,
2024-10-04,14:49:49.580,45.94782132,-66.63181455,-17.654,-0.003,0.001,-0.003,0.003,0.000,0.003,-0.616,0.510,-9.758,0.010,0.005,-9.790,162.242,-3.668,-2.957,0.018,-0.266,0.171,0.006,-0.257,0.186,0.402,0.402,0.725,0.033,0.033,0.019,0.068,0.069,0.204,0.024,,,,
2024-10-04,14:49:50.580,45.94782129,-66.63181450,-17.646,-0.003,0.003,-0.003,0.003,-0.002,0.004,-0.634,0.504,-9.773,-0.006,-0.001,-9.807,162.275,-3.670,-2.961,-0.317,0.052,-0.292,-0.298,0.036,-0.314,0.402,0.403,0.725,0.033,0.033,0.019,0.068,0.069,0.204,0.026,,,,
2024-10-04,14:49:51.580,45.94782125,-66.63181451,-17.651,-0.003,0.004,-0.003,0.004,-0.003,0.005,-0.625,0.506,-9.769,0.003,0.001,-9.802,162.311,-3.675,-2.958,0.233,-0.010,-0.189,0.245,-0.019,-0.173,0.402,0.402,0.725,0.033,0.033,0.019,0.068,0.069,0.203,0.026,,,,
2024-10-04,14:49:52.580,45.94782117,-66.63181450,-17.652,-0.005,0.005,-0.003,0.006,-0.004,0.007,-0.626,0.507,-9.781,0.003,0.002,-9.814,162.339,-3.674,-2.959,-0.024,0.107,0.054,-0.027,0.110,0.047,0.402,0.402,0.725,0.033,0.033,0.019,0.067,0.068,0.203,0.026,,,,
2024-10-04,14:49:53.580,45.94782115,-66.63181450,-17.650,-0.005,0.006,-0.003,0.007,-0.004,0.008,-0.619,0.501,-9.771,0.010,-0.004,-9.803,162.356,-3.677,-2.961,-0.046,-0.067,0.185,-0.058,-0.057,0.185,0.402,0.402,0.725,0.033,0.033,0.019,0.067,0.068,0.203,0.026,,,,
2024-10-04,14:49:54.580,45.94782113,-66.63181443,-17.637,-0.005,0.008,-0.003,0.008,-0.006,0.010,-0.621,0.498,-9.775,0.007,-0.008,-9.807,162.378,-3.675,-2.962,-0.025,-0.074,0.162,-0.036,-0.065,0.164,0.402,0.402,0.725,0.033,0.033,0.019,0.067,0.068,0.203,0.028,,,,
2024-10-04,14:49:55.580,45.94782119,-66.63181410,-17.578,-0.003,0.015,-0.004,0.007,-0.014,0.016,-0.620,0.508,-9.772,0.009,0.001,-9.805,162.413,-3.675,-2.971,0.276,-0.201,0.175,0.264,-0.191,0.203,0.402,0.403,0.725,0.034,0.034,0.019,0.068,0.069,0.203,0.028,,,,
2024-10-04,14:49:56.580,45.94782126,-66.63181408,-17.565,0.001,0.016,-0.004,0.004,-0.015,0.016,-0.625,0.509,-9.776,0.002,0.003,-9.809,162.457,-3.666,-2.966,0.187,-0.074,-0.037,0.189,-0.076,-0.021,0.402,0.403,0.725,0.033,0.033,0.019,0.067,0.068,0.205,0.028,,,,
2024-10-04,14:49:57.580,45.94782106,-66.63181423,-17.612,-0.005,0.011,-0.004,0.008,-0.009,0.012,-0.629,0.516,-9.776,0.001,0.011,-9.810,162.474,-3.679,-2.956,0.069,-0.143,-0.219,0.082,-0.154,-0.207,0.402,0.403,0.725,0.034,0.034,0.019,0.068,0.069,0.207,0.028,,,,
2024-10-04,14:49:58.580,45.94782094,-66.63181452,-17.640,-0.009,0.002,-0.004,0.009,0.001,0.009,-0.627,0.511,-9.774,0.002,0.008,-9.807,162.489,-3.676,-2.941,0.311,0.026,-0.312,0.330,0.010,-0.292,0.402,0.403,0.725,0.033,0.034,0.019,0.067,0.068,0.209,0.030,,,,
2024-10-04,14:49:59.580,45.94782090,-66.63181467,-17.645,-0.010,-0.003,-0.005,0.009,0.006,0.011,-0.628,0.509,-9.772,0.001,0.008,-9.805,162.511,-3.678,-2.938,-0.058,-0.152,-0.213,-0.045,-0.163,-0.208,0.402,0.403,0.725,0.033,0.033,0.019,0.066,0.068,0.210,0.030,,,,
2024-10-04,14:50:00.580,45.94782090,-66.63181487,-17.654,-0.009,-0.007,-0.005,0.007,0.010,0.012,-0.619,0.505,-9.766,0.009,0.004,-9.798,162.544,-3.672,-2.936,-0.038,-0.333,-0.039,-0.037,-0.335,-0.024,0.402,0.403,0.725,0.033,0.033,0.019,0.066,0.068,0.211,0.030,,,,
2024-10-04,14:50:01.580,45.94782089,-66.63181493,-17.670,-0.008,-0.009,-0.005,0.005,0.011,0.012,-0.631,0.508,-9.775,-0.004,0.006,-9.808,162.576,-3.670,-2.938,0.060,-0.163,-0.303,0.078,-0.179,-0.289,0.402,0.403,0.725,0.033,0.033,0.019,0.066,0.068,0.210,0.030,,,,
2024-10-04,14:50:02.580,45.94782086,-66.63181504,-17.694,-0.007,-0.010,-0.005,0.004,0.012,0.012,-0.634,0.512,-9.770,-0.007,0.011,-9.804,162.589,-3.665,-2.938,-0.116,-0.010,-0.344,-0.094,-0.028,-0.350,0.402,0.403,0.725,0.033,0.033,0.019,0.066,0.068,0.209,0.030,,,,
2024-10-04,14:50:03.580,45.94782079,-66.63181515,-17.704,-0.008,-0.011,-0.005,0.004,0.013,0.014,-0.624,0.510,-9.765,0.002,0.009,-9.798,162.567,-3.667,-2.936,0.046,-0.334,-0.187,0.057,-0.343,-0.167,0.402,0.403,0.725,0.033,0.033,0.019,0.066,0.067,0.207,0.030,,,,
2024-10-04,14:50:04.580,45.94782073,-66.63181520,-17.703,-0.008,-0.011,-0.005,0.004,0.013,0.014,-0.623,0.499,-9.771,0.003,-0.002,-9.803,162.564,-3.661,-2.941,-0.333,0.139,0.091,-0.338,0.143,0.062,0.402,0.403,0.725,0.033,0.033,0.019,0.066,0.067,0.206,0.030,,,,
2024-10-04,14:50:05.580,45.94782074,-66.63181522,-17.711,-0.006,-0.010,-0.005,0.002,0.011,0.011,-0.621,0.503,-9.766,0.005,0.001,-9.798,162.561,-3.660,-2.944,-0.034,-0.051,0.136,-0.043,-0.044,0.136,0.402,0.403,0.725,0.033,0.033,0.019,0.066,0.067,0.205,0.030,,,,
2024-10-04,14:50:06.580,45.94782081,-66.63181526,-17.727,-0.001,-0.009,-0.005,-0.002,0.009,0.009,-0.634,0.510,-9.783,-0.008,0.007,-9.817,162.562,-3.653,-2.946,-0.077,0.088,-0.267,-0.059,0.074,-0.275,0.402,0.403,0.725,0.033,0.033,0.019,0.066,0.067,0.205,0.030,,,,
2024-10-04,14:50:07.580,45.94782090,-66.63181529,-17.744,0.005,-0.008,-0.005,-0.007,0.006,0.009,-0.628,0.506,-9.780,-0.002,0.002,-9.813,162.568,-3.653,-2.951,-0.046,-0.077,0.068,-0.050,-0.073,0.069,0.402,0.403,0.725,0.033,0.033,0.019,0.066,0.066,0.203,0.030,,,,
2024-10-04,14:50:08.580,45.94782089,-66.63181519,-17.746,0.005,-0.004,-0.005,-0.006,0.002,0.006,-0.621,0.507,-9.755,0.003,0.004,-9.788,162.573,-3.657,-2.954,0.101,-0.393,-0.294,0.118,-0.408,-0.266,0.402,0.403,0.725,0.033,0.033,0.019,0.066,0.066,0.203,0.030,,,,
2024-10-04,14:50:09.580,45.94782091,-66.63181508,-17.751,0.006,0.001,-0.005,-0.005,-0.003,0.006,-0.616,0.501,-9.774,0.010,-0.004,-9.806,162.587,-3.656,-2.960,0.178,-0.025,0.322,0.157,-0.009,0.334,0.402,0.403,0.725,0.033,0.033,0.019,0.065,0.066,0.203,0.028,,,,
2024-10-04,14:50:10.580,45.94782099,-66.63181513,-17.784,0.008,0.002,-0.005,-0.007,-0.004,0.008,-0.616,0.509,-9.776,0.010,0.004,-9.809,162.596,-3.656,-2.954,0.429,-0.205,0.358,0.405,-0.186,0.395,0.402,0.403,0.725,0.033,0.033,0.019,0.065,0.066,0.203,0.028,,,,
2024-10-04,14:50:11.580,45.94782100,-66.63181523,-17.795,0.008,-0.001,-0.005,-0.008,-0.002,0.008,-0.625,0.511,-9.777,0.001,0.007,-9.810,162.594,-3.661,-2.947,0.339,-0.149,0.085,0.333,-0.144,0.114,0.402,0.403,0.725,0.033,0.033,0.019,0.065,0.066,0.202,0.026,,,,
2024-10-04,14:50:12.580,45.94782102,-66.63181541,-17.807,0.006,-0.005,-0.005,-0.007,0.003,0.008,-0.623,0.505,-9.765,0.004,0.003,-9.798,162.619,-3.666,-2.942,-0.243,-0.186,0.053,-0.246,-0.183,0.047,0.402,0.403,0.725,0.033,0.033,0.019,0.065,0.066,0.202,0.026,,,,
2024-10-04,14:50:13.580,45.94782097,-66.63181558,-17.818,0.002,-0.009,-0.005,-0.005,0.008,0.009,-0.617,0.499,-9.758,0.010,-0.001,-9.790,162.646,-3.670,-2.937,-0.147,-0.175,0.193,-0.160,-0.165,0.191,0.402,0.403,0.725,0.032,0.033,0.019,0.065,0.066,0.202,0.024,,,,
2024-10-04,14:50:14.580,45.94782093,-66.63181573,-17.832,-0.002,-0.011,-0.004,-0.002,0.011,0.011,-0.625,0.499,-9.774,0.004,-0.002,-9.807,162.678,-3.674,-2.937,-0.046,0.121,0.155,-0.056,0.129,0.146,0.402,0.403,0.725,0.032,0.033,0.019,0.065,0.066,0.202,0.022,,,,
2024-10-04,14:50:15.580,45.94782088,-66.63181578,-17.844,-0.005,-0.010,-0.004,0.002,0.011,0.011,-0.629,0.506,-9.774,0.001,0.004,-9.808,162.702,-3.680,-2.942,-0.160,0.154,-0.066,-0.155,0.151,-0.084,0.402,0.403,0.725,0.032,0.033,0.019,0.065,0.066,0.202,0.020,,,,
2024-10-04,14:50:16.580,45.94782075,-66.63181582,-17.855,-0.010,-0.008,-0.004,0.007,0.011,0.013,-0.633,0.513,-9.782,-0.002,0.010,-9.816,162.733,-3.683,-2.943,0.053,0.142,-0.070,0.058,0.138,-0.073,0.402,0.403,0.725,0.032,0.033,0.019,0.065,0.066,0.202,0.018,,,,
2024-10-04,14:50:17.580,45.94782068,-66.63181582,-17.873,-0.013,-0.005,-0.004,0.011,0.009,0.014,-0.620,0.513,-9.761,0.010,0.011,-9.794,162.779,-3.687,-2.947,0.352,-0.384,0.009,0.350,-0.384,0.051,0.402,0.403,0.725,0.032,0.033,0.019,0.064,0.065,0.202,0.016,,,,
2024-10-04,14:50:18.580,45.94782073,-66.63181583,-17.900,-0.011,-0.003,-0.004,0.009,0.006,0.011,-0.630,0.511,-9.776,-0.001,0.007,-9.810,162.792,-3.679,-2.951,-0.077,0.018,-0.356,-0.054,-0.000,-0.360,0.402,0.403,0.725,0.032,0.033,0.019,0.064,0.065,0.203,0.012,,,,
2024-10-04,14:50:19.580,45.94782065,-66.63181576,-17.913,-0.012,0.001,-0.004,0.012,0.003,0.012,-0.613,0.502,-9.751,0.016,-0.002,-9.783,162.803,-3.686,-2.955,-0.050,-0.285,0.380,-0.075,-0.265,0.391,0.402,0.403,0.725,0.032,0.033,0.019,0.064,0.065,0.202,0.010,,,,
2024-10-04,14:50:20.580,45.94782047,-66.63181562,-17.883,-0.018,0.006,-0.004,0.018,-0.000,0.018,-0.627,0.505,-9.781,0.005,-0.001,-9.814,162.774,-3.693,-2.959,-0.066,0.191,0.166,-0.076,0.200,0.151,0.402,0.403,0.725,0.032,0.033,0.019,0.064,0.065,0.202,0.008,,,,
2024-10-04,14:50:21.580,45.94782043,-66.63181560,-17.879,-0.018,0.008,-0.004,0.020,-0.002,0.020,-0.623,0.506,-9.757,0.007,0.002,-9.790,162.727,-3.690,-2.957,-0.160,-0.207,0.131,-0.169,-0.200,0.131,0.402,0.403,0.725,0.032,0.033,0.019,0.064,0.065,0.202,0.006,,,,
2024-10-04,14:50:22.580,45.94782043,-66.63181584,-17.909,-0.016,0.003,-0.004,0.016,0.002,0.016,-0.618,0.499,-9.753,0.010,-0.003,-9.786,162.768,-3.680,-2.948,-0.327,-0.231,0.036,-0.329,-0.229,0.027,0.402,0.403,0.725,0.032,0.032,0.019,0.064,0.065,0.203,0.004,,,,
2024-10-04,14:50:23.580,45.94782055,-66.63181587,-17.914,-0.010,0.002,-0.004,0.010,0.001,0.011,-0.625,0.507,-9.771,0.004,0.002,-9.804,162.865,-3.675,-2.953,-0.053,-0.127,-0.001,-0.054,-0.126,0.003,0.402,0.403,0.725,0.032,0.032,0.019,0.064,0.065,0.203,0.002,,,,
2024-10-04,14:50:24.580,45.94782068,-66.63181597,-17.929,-0.004,0.001,-0.004,0.004,-0.000,0.004,-0.638,0.508,-9.783,-0.009,0.004,-9.817,162.909,-3.669,-2.953,-0.268,0.231,-0.242,-0.251,0.219,-0.270,0.402,0.403,0.725,0.032,0.033,0.019,0.064,0.065,0.203,0.000,,,,
2024-10-04,14:50:25.580,45.94782075,-66.63181597,-17.929,-0.001,0.002,-0.004,0.001,-0.002,0.002,-0.627,0.510,-9.776,0.000,0.005,-9.810,162.941,-3.668,-2.954,0.191,0.065,0.011,0.190,0.065,0.020,0.402,0.403,0.725,0.032,0.032,0.019,0.064,0.065,0.203,-0.002,,,,
2024-10-04,14:50:26.580,45.94782070,-66.63181607,-17.953,-0.002,0.001,-0.004,0.002,-0.000,0.002,-0.627,0.503,-9.778,0.001,-0.000,-9.811,162.971,-3.668,-2.948,-0.048,0.084,0.271,-0.064,0.098,0.263,0.402,0.403,0.725,0.032,0.032,0.019,0.064,0.064,0.203,-0.004,,,,
2024-10-04,14:50:27.580,45.94782058,-66.63181620,-17.959,-0.006,-0.001,-0.004,0.005,0.003,0.006,-0.628,0.508,-9.777,0.002,0.005,-9.810,162.986,-3.678,-2.942,0.051,-0.057,-0.057,0.054,-0.060,-0.050,0.402,0.403,0.725,0.032,0.032,0.019,0.064,0.065,0.203,-0.004,,,,
2024-10-04,14:50:28.580,45.94782049,-66.63181641,-17.983,-0.010,-0.006,-0.004,0.008,0.008,0.011,-0.621,0.501,-9.770,0.008,0.000,-9.803,163.001,-3.679,-2.935,-0.160,-0.087,0.242,-0.176,-0.074,0.236,0.402,0.403,0.725,0.032,0.032,0.019,0.063,0.064,0.203,-0.006,,,,
2024-10-04,14:50:29.580,45.94782050,-66.63181647,-17.997,-0.009,-0.006,-0.004,0.007,0.009,0.011,-0.625,0.501,-9.767,0.003,0.001,-9.800,163.009,-3.675,-2.934,0.005,-0.103,-0.019,0.006,-0.104,-0.014,0.402,0.403,0.725,0.032,0.032,0.019,0.063,0.064,0.203,-0.006,,,,
2024-10-04,14:50:30.580,45.94782055,-66.63181639,-17.998,-0.007,-0.003,-0.004,0.006,0.005,0.008,-0.613,0.502,-9.759,0.014,0.001,-9.791,163.009,-3.672,-2.941,-0.043,-0.159,0.248,-0.059,-0.146,0.252,0.402,0.403,0.725,0.032,0.032,0.019,0.063,0.064,0.203,-0.008,,,,
2024-10-04,14:50:31.580,45.94782055,-66.63181648,-18.018,-0.006,-0.004,-0.004,0.005,0.006,0.007,-0.626,0.503,-9.775,0.002,0.001,-9.808,162.986,-3.672,-2.937,-0.260,-0.011,0.127,-0.267,-0.004,0.110,0.402,0.403,0.725,0.032,0.032,0.019,0.063,0.064,0.203,-0.008,,,,
2024-10-04,14:50:32.580,45.94782047,-66.63181655,-18.024,-0.009,-0.005,-0.004,0.007,0.008,0.010,-0.625,0.510,-9.771,0.002,0.009,-9.804,162.949,-3.671,-2.933,0.113,0.013,0.171,0.102,0.022,0.177,0.402,0.403,0.725,0.032,0.032,0.019,0.063,0.064,0.203,-0.008,,,,
2024-10-04,14:50:33.580,45.94782052,-66.63181669,-18.045,-0.007,-0.007,-0.004,0.005,0.009,0.010,-0.624,0.503,-9.771,0.003,0.002,-9.803,162.900,-3.668,-2.934,-0.069,-0.171,0.091,-0.076,-0.166,0.095,0.402,0.403,0.725,0.032,0.032,0.019,0.063,0.064,0.203,-0.008,,,,
2024-10-04,14:50:34.580,45.94782055,-66.63181684,-18.057,-0.005,-0.010,-0.004,0.002,0.011,0.011,-0.615,0.504,-9.752,0.011,0.005,-9.784,162.868,-3.665,-2.930,0.021,-0.451,0.223,0.005,-0.439,0.247,0.402,0.403,0.725,0.032,0.032,0.019,0.062,0.064,0.203,-0.008,,,,
2024-10-04,14:50:35.580,45.94782065,-66.63181696,-18.067,-0.001,-0.011,-0.004,-0.002,0.011,0.011,-0.625,0.503,-9.772,0.000,0.002,-9.804,162.865,-3.655,-2.932,0.003,0.138,0.022,0.002,0.139,0.015,0.402,0.403,0.725,0.032,0.032,0.019,0.062,0.064,0.203,-0.008,,,,
2024-10-04,14:50:36.580,45.94782062,-66.63181704,-18.070,-0.001,-0.011,-0.004,-0.002,0.011,0.011,-0.633,0.514,-9.770,-0.006,0.013,-9.804,162.873,-3.664,-2.934,0.053,-0.447,-0.465,0.081,-0.470,-0.437,0.402,0.403,0.725,0.032,0.032,0.019,0.062,0.064,0.203,-0.010,,,,
2024-10-04,14:50:37.580,45.94782053,-66.63181733,-18.090,-0.004,-0.014,-0.004,-0.001,0.015,0.015,-0.625,0.501,-9.767,0.001,0.001,-9.800,162.875,-3.661,-2.932,-0.250,0.038,0.025,-0.251,0.039,0.007,0.402,0.403,0.725,0.032,0.032,0.019,0.062,0.064,0.203,-0.008,,,,
2024-10-04,14:50:38.580,45.94782041,-66.63181761,-18.106,-0.007,-0.018,-0.004,0.002,0.019,0.019,-0.636,0.506,-9.783,-0.008,0.006,-9.816,162.908,-3.665,-2.928,-0.037,0.245,0.114,-0.043,0.251,0.099,0.402,0.403,0.725,0.032,0.032,0.019,0.062,0.063,0.203,-0.008,,,,
2024-10-04,14:50:39.580,45.94782044,-66.63181784,-18.118,-0.006,-0.020,-0.004,0.000,0.021,0.021,-0.622,0.501,-9.766,0.004,0.002,-9.798,162.953,-3.661,-2.927,-0.108,-0.037,0.034,-0.110,-0.035,0.029,0.402,0.403,0.725,0.032,0.032,0.019,0.062,0.063,0.202,-0.008,,,,
2024-10-04,14:50:40.580,45.94782056,-66.63181801,-18.133,-0.001,-0.020,-0.004,-0.005,0.019,0.020,-0.636,0.512,-9.777,-0.011,0.012,-9.811,162.992,-3.653,-2.930,0.078,-0.049,-0.252,0.094,-0.062,-0.244,0.402,0.403,0.725,0.032,0.032,0.019,0.062,0.063,0.202,-0.008,,,,
2024-10-04,14:50:41.580,45.94782062,-66.63181818,-18.131,0.002,-0.019,-0.004,-0.008,0.018,0.019,-0.631,0.503,-9.776,-0.005,0.001,-9.809,163.032,-3.654,-2.936,-0.048,0.191,-0.181,-0.036,0.181,-0.193,0.402,0.403,0.725,0.032,0.032,0.019,0.062,0.063,0.202,-0.008,,,,
2024-10-04,14:50:42.580,45.94782062,-66.63181821,-18.134,0.002,-0.015,-0.004,-0.007,0.014,0.015,-0.627,0.504,-9.768,-0.002,0.002,-9.801,163.063,-3.660,-2.944,-0.267,-0.124,-0.205,-0.254,-0.135,-0.215,0.402,0.403,0.725,0.032,0.032,0.019,0.062,0.063,0.202,-0.008,,,,
2024-10-04,14:50:43.580,45.94782056,-66.63181825,-18.140,-0.000,-0.011,-0.004,-0.003,0.011,0.011,-0.633,0.508,-9.774,-0.005,0.005,-9.808,163.094,-3.668,-2.944,-0.344,0.041,-0.305,-0.324,0.026,-0.328,0.402,0.403,0.725,0.032,0.032,0.019,0.062,0.062,0.202,-0.008,,,,
2024-10-04,14:50:44.580,45.94782044,-66.63181821,-18.136,-0.006,-0.007,-0.005,0.003,0.008,0.009,-0.622,0.511,-9.783,0.007,0.008,-9.816,163.113,-3.675,-2.943,0.254,0.125,0.140,0.245,0.132,0.149,0.402,0.403,0.725,0.032,0.032,0.019,0.062,0.063,0.201,-0.006,,,,
2024-10-04,14:50:45.580,45.94782033,-66.63181820,-18.137,-0.010,-0.003,-0.005,0.009,0.006,0.011,-0.623,0.503,-9.767,0.006,0.001,-9.800,163.080,-3.680,-2.943,-0.063,-0.177,-0.023,-0.062,-0.178,-0.018,0.402,0.403,0.725,0.032,0.032,0.019,0.062,0.062,0.201,-0.006,,,,
2024-10-04,14:50:46.580,45.94782026,-66.63181835,-18.148,-0.013,-0.004,-0.005,0.011,0.008,0.013,-0.629,0.507,-9.779,0.000,0.005,-9.813,163.040,-3.676,-2.939,0.091,0.209,0.162,0.081,0.217,0.157,0.402,0.403,0.725,0.032,0.032,0.019,0.061,0.062,0.201,-0.004,,,,
2024-10-04,14:50:47.580,45.94782014,-66.63181853,-18.155,-0.015,-0.006,-0.005,0.013,0.010,0.016,-0.630,0.509,-9.762,-0.002,0.007,-9.796,162.991,-3.675,-2.941,-0.018,-0.051,-0.238,-0.003,-0.063,-0.236,0.402,0.403,0.725,0.032,0.032,0.019,0.061,0.062,0.202,-0.004,,,,
2024-10-04,14:50:48.580,45.94782018,-66.63181874,-18.174,-0.012,-0.009,-0.005,0.009,0.012,0.015,-0.624,0.507,-9.774,0.004,0.006,-9.807,162.947,-3.667,-2.938,-0.067,-0.077,-0.150,-0.058,-0.084,-0.149,0.402,0.403,0.725,0.032,0.032,0.019,0.061,0.062,0.202,-0.002,,,,
2024-10-04,14:50:49.580,45.94782026,-66.63181895,-18.184,-0.007,-0.011,-0.005,0.003,0.012,0.013,-0.635,0.510,-9.785,-0.008,0.007,-9.818,162.890,-3.659,-2.940,0.008,0.166,-0.032,0.011,0.164,-0.040,0.402,0.403,0.725,0.032,0.032,0.019,0.061,0.062,0.202,-0.002,,,,
2024-10-04,14:50:50.580,45.94782037,-66.63181908,-18.191,-0.002,-0.011,-0.005,-0.002,0.011,0.011,-0.634,0.503,-9.782,-0.008,-0.000,-9.815,162.848,-3.657,-2.944,-0.072,0.177,-0.217,-0.057,0.166,-0.229,0.402,0.403,0.725,0.032,0.032,0.019,0.061,0.062,0.202,0.000,,,,
